Terminal log file
Date: 20.04.2023 - 12:50:11
-----------------------------------------------
712:50:12.326> 
$GPGGA,085013.00,5312.79477,N,05010.54708,E,1,05,5.29,121.9,M,-6.4,M,,*4912:50:12.456> 
$GPGSA,A,3,12,11,25,06$GPRMC,085014.00,A,5312.79287,N,05010.54675,E,2.502,,200423,,,A*7D12:50:12.555> 
$GPVTG,,T,,M,2.502,N,4.633,K,A*2412:50:13.535> 
$GPGGA,085014.00,5312.79287,N,05010.54675,E,1,05,5.29,121.9,M,-6.4,M,,*4C12:50:13.633> 
$GPGSA,A,3,12,11,25,06$GPRMC,085015.00,A,5312.79324,N,05010.54682,E,1.748,,200423,,,A*7312:50:13.755> 
$GPVTG,,T,,M,1.748,N,3.237,K,A*2C12:50:14.660> 
$GPGGA,085015.00,5312.79324,N,05010.54682,E,1,05,2.90,121.9,M,-6.4,M,,*4812:50:14.725> 
$GPGSA,A,3,12,11,25,06$GPRMC,085016.00,A,5312.79357,N,05010.54613,E,1.108,,200423,,,A*7E12:50:14.822> 
$GPVTG,,T,,M,1.108,N,2.052,K,A*2E12:50:15.794> 
$GPGGA,085016.00,5312.79357,N,05010.54613,E,1,05,2.90,121.9,M,-6.4,M,,*4712:50:15.859> 
$GPGSA,A,3,12,11,25,06$GPRMC,085018.00,A,5312.79372,N,05010.54503,E,0.551,,200423,,,A*7C12:50:15.950> 
$GPVTG,,T,,M,0.551,N,1.021,K,A*2012:50:17.318> 
$GPGGA,085018.00,5312.79372,N,05010.54503,E,1,05,2.90,121.9,M,-6.4,M,,*4C12:50:17.456> 
$GPGSA,A,3,12,11,25,06$GPRMC,085019.00,A,5312.79378,N,05010.54504,E,0.392,,200423,,,A*7912:50:17.562> 
$GPVTG,,T,,M,0.392,N,0.727,K,A*2912:50:18.479> 
$GPGGA,085019.00,5312.79378,N,05010.54504,E,1,05,2.90,121.9,M,-6.4,M,,*4012:50:18.559> 
$GPGSA,A,3,12,11,25,06$GPRMC,085020.00,A,5312.79330,N,05010.54458,E,0.862,,200423,,,A*7312:50:18.662> 
$GPVTG,,T,,M,0.862,N,1.597,K,A*2512:50:19.631> 
$GPGGA,085020.00,5312.79330,N,05010.54458,E,1,05,2.90,121.9,M,-6.4,M,,*4E12:50:19.753> 
$GPGSA,A,3,12,11,25,06$GPRMC,085021.00,A,5312.79257,N,05010.54395,E,1.659,,200423,,,A*7312:50:19.851> 
$GPVTG,,T,,M,1.659,N,3.072,K,A*2E12:50:20.815> 
$GPGGA,085021.00,5312.79257,N,05010.54395,E,1,05,2.90,122.0,M,-6.4,M,,*4312:50:20.881> 
$GPGSA,A,3,12,11,25,06$GPRMC,085023.00,A,5312.79318,N,05010.54301,E,0.774,,200423,,,A*7912:50:20.962> 
$GPVTG,,T,,M,0.774,N,1.433,K,A*2212:50:22.378> 
$GPGGA,085023.00,5312.79318,N,05010.54301,E,1,05,2.90,122.0,M,-6.4,M,,*4612:50:22.459> 
$GPGSA,A,3,12,11,25,06$GPRMC,085024.00,A,5312.79353,N,05010.54249,E,0.432,,200423,,,A*7D12:50:22.573> 
$GPVTG,,T,,M,0.432,N,0.800,K,A*2E12:50:23.527> 
$GPGGA,085024.00,5312.79353,N,05010.54249,E,1,05,2.90,122.0,M,-6.4,M,,*4312:50:23.616> 
$GPGSA,A,3,12,11,25,06$GPRMC,085025.00,A,5312.79349,N,05010.54229,E,0.380,,200423,,,A*7F12:50:23.739> 
$GPVTG,,T,,M,0.380,N,0.703,K,A*2C12:50:24.675> 
$GPGGA,085025.00,5312.79349,N,05010.54229,E,1,05,2.90,122.0,M,-6.4,M,,*4F12:50:24.756> 
$GPGSA,A,3,12,11,25,06$GPRMC,085026.00,A,5312.79309,N,05010.54241,E,0.749,,200423,,,A*7712:50:24.870> 
$GPVTG,,T,,M,0.749,N,1.387,K,A*2412:50:25.800> 
$GPGGA,085026.00,5312.79309,N,05010.54241,E,1,05,2.90,122.0,M,-6.4,M,,*4612:50:25.930> 
$GPGSA,A,3,12,11,25,06$GPRMC,085028.00,A,5312.79290,N,05010.54313,E,0.934,,200423,,,A*7A12:50:26.061> 
$GPVTG,,T,,M,0.934,N,1.729,K,A*2012:50:27.316> 
$GPGGA,085028.00,5312.79290,N,05010.54313,E,1,03,3.13,122.0,M,-6.4,M,,*4312:50:27.454> 
$GPGSA,A,2,12,25,06,,,$GPRMC,085029.00,A,5312.79283,N,05010.54347,E,0.814,,200423,,,A*7B12:50:27.569> 
$GPVTG,,T,,M,0.814,N,1.508,K,A*2212:50:28.521> 
$GPGGA,085029.00,5312.79283,N,05010.54347,E,1,03,3.13,122.0,M,-6.4,M,,*4112:50:28.611> 
$GPGSA,A,2,12,25,06,,,$GPRMC,085030.00,V,,,,,,,200423,,,N*7412:50:28.611> 
$GPVTG,,,,,,,,,N*3012:50:28.741> 
$GPGGA,085030.00,,,,,0,00,99.99,,,,,,*6812:50:29.655> 
$GPGSA,A,1,,,,,,,,,,,,,99.99,99.99,99.99*3012:50:29.720> 
$GPGSV,3,1,12,04,,,11,05,,,13,06,41,056,21,11,63,128$GPRMC,085031.00,A,5312.79299,N,05010.54420,E,0.836,,200423,,,A*7F12:50:29.818> 
$GPVTG,,T,,M,0.836,N,1.547,K,A*2912:50:30.793> 
$GPGGA,085031.00,5312.79299,N,05010.54420,E,1,05,5.41,122.0,M,-6.4,M,,*4212:50:30.855> 
$GPGSA,A,3,12,11,25,06$GPRMC,085033.00,V,,,,,,,200423,,,N*7712:50:30.936> 
$GPVTG,,,,,,,,,N*3012:50:30.936> 
$GPGGA,085033.00,,,,,0,00,99.99,,,,,,*6B12:50:32.437> 
$GPGSA,A,1,,,,,,,,,,,,,99.99,99.99,99.99*3012:50:32.502> 
$GPGSV,4,1,15,03,,,24,05,,,08,06,41,056,24,11,63,128$GPRMC,085034.00,V,,,,,,,200423,,,N*7012:50:32.585> 
$GPVTG,,,,,,,,,N*3012:50:32.585> 
$GPGGA,085034.00,,,,,0,00,99.99,,,,,,*6C12:50:33.603> 
$GPGSA,A,1,,,,,,,,,,,,,99.99,99.99,99.99*3012:50:33.660> 
$GPGSV,4,1,15,03,,,24,05,,,25,06,41,056,25,11,63,128$GPRMC,085035.00,A,5312.79257,N,05010.54394,E,0.315,,200423,,,A*7B12:50:33.767> 
$GPVTG,,T,,M,0.315,N,0.582,K,A*2B12:50:34.729> 
$GPGGA,085035.00,5312.79257,N,05010.54394,E,1,05,3.55,122.0,M,-6.4,M,,*4F12:50:34.859> 
$GPGSA,A,3,12,11,25,06$GPRMC,085036.00,A,5312.79233,N,05010.54356,E,0.310,,200423,,,A*7112:50:34.972> 
$GPVTG,,T,,M,0.310,N,0.575,K,A*2612:50:36.438> 
$GPGGA,085036.00,5312.79233,N,05010.54356,E,1,05,3.55,122.0,M,-6.4,M,,*4012:50:36.520> 
$GPGSA,A,3,12,11,25,06$GPRMC,085038.00,A,5312.79245,N,05010.54257,E,0.058,,200423,,,A*7112:50:36.634> 
$GPVTG,,T,,M,0.058,N,0.107,K,A*2812:50:37.578> 
$GPGGA,085038.00,5312.79245,N,05010.54257,E,1,05,2.90,122.0,M,-6.4,M,,*4712:50:37.655> 
$GPGSA,A,3,12,11,25,06$GPRMC,085039.00,A,5312.79195,N,05010.54239,E,0.428,,200423,,,A*7512:50:37.768> 
$GPVTG,,T,,M,0.428,N,0.793,K,A*2012:50:38.711> 
$GPGGA,085039.00,5312.79195,N,05010.54239,E,1,05,5.47,122.0,M,-6.4,M,,*4D12:50:38.768> 
$GPGSA,A,3,12,11,25,06$GPRMC,085040.00,A,5312.79328,N,05010.54088,E,1.039,,200423,,,A*7212:50:38.960> 
$GPVTG,,T,,M,1.039,N,1.925,K,A*2712:50:39.851> 
$GPGGA,085040.00,5312.79328,N,05010.54088,E,1,04,5.48,122.0,M,-6.4,M,,*4112:50:39.916> 
$GPGSA,A,3,12,11,25,06$GPRMC,085042.00,A,5312.79332,N,05010.54069,E,0.555,,200423,,,A*7A12:50:40.098> 
$GPVTG,,T,,M,0.555,N,1.028,K,A*2D12:50:41.401> 
$GPGGA,085042.00,5312.79332,N,05010.54069,E,1,04,5.50,122.0,M,-6.4,M,,*4E12:50:41.466> 
$GPGSA,A,3,12,11,25,06$GPRMC,085043.00,A,5312.79332,N,05010.54080,E,0.393,,200423,,,A*7012:50:41.548> 
$GPVTG,,T,,M,0.393,N,0.728,K,A*2712:50:42.545> 
$GPGGA,085043.00,5312.79332,N,05010.54080,E,1,04,5.50,122.0,M,-6.4,M,,*4812:50:42.609> 
$GPGSA,A,3,12,11,25,06$GPRMC,085044.00,A,5312.79332,N,05010.54059,E,0.421,,200423,,,A*7D12:50:42.699> 
$GPVTG,,T,,M,0.421,N,0.780,K,A*2B12:50:43.674> 
$GPGGA,085044.00,5312.79332,N,05010.54059,E,1,04,5.51,122.0,M,-6.4,M,,*4A12:50:43.804> 
$GPGSA,A,3,12,11,25,06$GPRMC,085045.00,A,5312.79264,N,05010.54028,E,0.735,,200423,,,A*7E12:50:43.899> 
$GPVTG,,T,,M,0.735,N,1.361,K,A*2712:50:44.863> 
$GPGGA,085045.00,5312.79264,N,05010.54028,E,1,04,5.52,122.0,M,-6.4,M,,*4C12:50:44.928> 
$GPGSA,A,3,12,11,25,06$GPRMC,085047.00,A,5312.79280,N,05010.54225,E,0.778,,200423,,,A*7012:50:45.017> 
$GPVTG,,T,,M,0.778,N,1.441,K,A*2B12:50:46.256> 
$GPGGA,085047.00,5312.79280,N,05010.54225,E,1,05,5.53,122.0,M,-6.4,M,,*4B12:50:46.310> 
$GPGSA,A,3,12,11,25,06$GPRMC,085048.00,A,5312.79369,N,05010.54337,E,1.310,,200423,,,A*7012:50:46.507> 
$GPVTG,,T,,M,1.310,N,2.426,K,A*2212:50:47.440> 
$GPGGA,085048.00,5312.79369,N,05010.54337,E,1,04,5.54,122.0,M,-6.4,M,,*4612:50:47.529> 
$GPGSA,A,3,12,11,25,06$GPRMC,085049.00,V,,,,,,,200423,,,N*7A12:50:47.529> 
$GPVTG,,,,,,,,,N*3012:50:47.656> 
$GPGGA,085049.00,,,,,0,00,99.99,,,,,,*6612:50:48.532> 
$GPGSA,A,1,,,,,,,,,,,,,99.99,99.99,99.99*3012:50:48.595> 
$GPGSV,3,1,12,03,,,13,05,,,13,06,41,056,15,11,63,127$GPRMC,085050.00,V,,,,,,,200423,,,N*7212:50:48.677> 
$GPVTG,,,,,,,,,N*3012:50:48.792> 
$GPGGA,085050.00,,,,,0,00,99.99,,,,,,*6E12:50:49.718> 
$GPGSA,A,1,,,,,,,,,,,,,99.99,99.99,99.99*3012:50:49.783> 
$GPGSV,3,1,12,03,,,13,05,,,14,06,41,056,14,11,63,127$GPRMC,085052.00,V,,,,,,,200423,,,N*7012:50:49.873> 
$GPVTG,,,,,,,,,N*3012:50:49.873> 
$GPGGA,085052.00,,,,,0,00,99.99,,,,,,*6C12:50:50.851> 
$GPGSA,A,1,,,,,,,,,,,,,99.99,99.99,99.99*3012:50:50.917> 
$GPGSV,3,1,10,06,41,056,27,11,63,127,27,12,81,167,32$GPRMC,085053.00,A,5312.79228,N,05010.54272,E,0.471,,200423,,,A*7F12:50:51.105> 
$GPVTG,,T,,M,0.471,N,0.872,K,A*2C12:50:52.366> 
$GPGGA,085053.00,5312.79228,N,05010.54272,E,1,05,2.91,122.0,M,-6.4,M,,*4712:50:52.431> 
$GPGSA,A,3,12,11,25,06$GPRMC,085054.00,A,5312.79036,N,05010.54034,E,0.630,,200423,,,A*7212:50:52.553> 
$GPVTG,,T,,M,0.630,N,1.166,K,A*2612:50:53.499> 
$GPGGA,085054.00,5312.79036,N,05010.54034,E,1,05,2.91,122.0,M,-6.4,M,,*4D12:50:53.565> 
$GPGSA,A,3,12,11,25,06$GPRMC,085055.00,A,5312.78996,N,05010.53930,E,0.607,,200423,,,A*7F12:50:53.663> 
$GPVTG,,T,,M,0.607,N,1.125,K,A*2512:50:54.651> 
$GPGGA,085055.00,5312.78996,N,05010.53930,E,1,05,2.91,122.0,M,-6.4,M,,*4412:50:54.708> 
$GPGSA,A,3,12,11,25,06$GPRMC,085056.00,A,5312.79029,N,05010.53758,E,0.746,,200423,,,A*7412:50:54.798> 
$GPVTG,,T,,M,0.746,N,1.382,K,A*2E12:50:55.789> 
$GPGGA,085056.00,5312.79029,N,05010.53758,E,1,05,2.91,122.0,M,-6.4,M,,*4B12:50:55.870> 
$GPGSA,A,3,12,11,A*2A*206$GPRMC,085058.00,A,5312.79365,N,05010.53725,E,0.117,,200423,,,A*7912:50:56.000> 
$GPVTG,,T,,M,0.117,N,0.216,K,112:50:57.379> 
$GPGGA,085058.00,5312.79365,N,05010.53725,E,1,05,2.91,122.0,M,-6.4,M,,*4412:50:57.460> 
$GPGSA,A,3,12,11,25,06$GPRMC,085059.00,A,5312.79372,N,05010.53720,E,0.081,,200423,,,A*7512:50:57.574> 
$GPVTG,,T,,M,0.081,N,0.151,K,A*2F12:50:58.501> 
$GPGGA,085059.00,5312.79372,N,05010.53720,E,1,05,2.91,122.0,M,-6.4,M,,*4612:50:58.566> 
$GPGSA,A,3,12,11,25,06$GPRMC,085100.00,A,5312.79352,N,05010.53748,E,0.052,,200423,,,A*7A12:50:58.664> 
$GPVTG,,T,,M,0.052,N,0.096,K,A*2B12:50:59.627> 
$GPGGA,085100.00,5312.79352,N,05010.53748,E,1,05,2.91,122.0,M,-6.4,M,,*4712:50:59.774> 
$GPGSA,A,3,12,11,25,06$GPRMC,085101.00,A,5312.79345,N,05010.53778,E,0.030,,200423,,,A*7A12:50:59.887> 
$GPVTG,,T,,M,0.030,N,0.055,K,A*2012:51:00.778> 
$GPGGA,085101.00,5312.79345,N,05010.53778,E,1,05,2.91,122.0,M,-6.4,M,,*4312:51:00.900> 
$GPGSA,A,3,12,11,25,06$GPRMC,085103.00,A,5312.79355,N,05010.53791,E,0.047,,200423,,,A*7E12:51:00.982> 
$GPVTG,,T,,M,0.047,N,0.086,K,A*2E12:51:02.382> 
$GPGGA,085103.00,5312.79355,N,05010.53791,E,1,05,2.91,122.1,M,-6.4,M,,*4612:51:02.464> 
$GPGSA,A,3,12,11,25,06$GPRMC,085104.00,A,5312.79354,N,05010.53789,E,0.044,,200423,,,A*7212:51:02.561> 
$GPVTG,,T,,M,0.044,N,0.082,K,A*2912:51:03.524> 
$GPGGA,085104.00,5312.79354,N,05010.53789,E,1,05,2.91,122.1,M,-6.4,M,,*4912:51:03.611> 
$GPGSA,A,3,12,11,25,06$GPRMC,085105.00,A,5312.79352,N,05010.53791,E,0.068,,200423,,,A*7212:51:03.726> 
$GPVTG,,T,,M,0.068,N,0.127,K,A*2912:51:04.680> 
$GPGGA,085105.00,5312.79352,N,05010.53791,E,1,05,2.91,122.1,M,-6.4,M,,*4712:51:04.762> 
$GPGSA,A,3,12,11,25,06$GPRMC,085106.00,A,5312.79352,N,05010.53786,E,0.037,,200423,,,A*7D12:51:04.885> 
$GPVTG,,T,,M,0.037,N,0.069,K,A*2812:51:05.778> 
$GPGGA,085106.00,5312.79352,N,05010.53786,E,1,05,2.91,122.1,M,-6.4,M,,*4212:51:05.894> 
$GPGSA,A,3,12,11,25,06$GPRMC,085108.00,A,5312.79356,N,05010.53774,E,0.071,,200423,,,A*7812:51:05.992> 
$GPVTG,,T,,M,0.071,N,0.132,K,A*2512:51:07.387> 
$GPGGA,085108.00,5312.79356,N,05010.53774,E,1,05,2.91,122.1,M,-6.4,M,,*4512:51:07.477> 
$GPGSA,A,3,12,11,25,06$GPRMC,085109.00,A,5312.79362,N,05010.53775,E,0.094,,200423,,,A*7412:51:07.591> 
$GPVTG,,T,,M,0.094,N,0.175,K,A*2D12:51:08.514> 
$GPGGA,085109.00,5312.79362,N,05010.53775,E,1,05,2.91,122.2,M,-6.4,M,,*4112:51:08.579> 
$GPGSA,A,3,12,11,25,06$GPRMC,085110.00,A,5312.79361,N,05010.53769,E,0.100,,200423,,,A*7E12:51:08.677> 
$GPVTG,,T,,M,0.100,N,0.185,K,A*2E12:51:09.658> 
$GPGGA,085110.00,5312.79361,N,05010.53769,E,1,05,2.91,122.2,M,-6.4,M,,*4712:51:09.723> 
$GPGSA,A,3,12,11,25,06$GPRMC,085111.00,A,5312.79355,N,05010.53756,E,0.103,,200423,,,A*7712:51:09.821> 
$GPVTG,,T,,M,0.103,N,0.190,K,A*2912:51:10.796> 
$GPGGA,085111.00,5312.79355,N,05010.53756,E,1,05,2.91,122.2,M,-6.4,M,,*4D12:51:10.860> 
$GPGSA,A,3,12,11,25,06$GPRMC,085113.00,A,5312.79352,N,05010.53741,E,0.088,,200423,,,A*7612:51:10.951> 
$GPVTG,,T,,M,0.088,N,0.163,K,A*2712:51:12.386> 
$GPGGA,085113.00,5312.79352,N,05010.53741,E,1,05,2.91,122.3,M,-6.4,M,,*4F12:51:12.476> 
$GPGSA,A,3,12,11,25,06$GPRMC,085114.00,A,5312.79348,N,05010.53733,E,0.091,,200423,,,A*7712:51:12.589> 
$GPVTG,,T,,M,0.091,N,0.169,K,A*2512:51:13.531> 
$GPGGA,085114.00,5312.79348,N,05010.53733,E,1,05,2.91,122.3,M,-6.4,M,,*4612:51:13.604> 
$GPGSA,A,3,12,11,25,06$GPRMC,085115.00,A,5312.79350,N,05010.53726,E,0.049,,200423,,,A*7E12:51:13.710> 
$GPVTG,,T,,M,0.049,N,0.091,K,A*2612:51:14.651> 
$GPGGA,085115.00,5312.79350,N,05010.53726,E,1,05,2.91,122.4,M,-6.4,M,,*4D12:51:14.717> 
$GPGSA,A,3,12,11,25,06$GPRMC,085116.00,A,5312.79351,N,05010.53715,E,0.041,,200423,,,A*7412:51:14.815> 
$GPVTG,,T,,M,0.041,N,0.077,K,A*2612:51:15.793> 
$GPGGA,085116.00,5312.79351,N,05010.53715,E,1,05,2.91,122.5,M,-6.4,M,,*4E12:51:15.905> 
$GPGSA,A,3,12,11,25,06$GPRMC,085118.00,A,5312.79353,N,05010.53689,E,0.069,,200423,,,A*7612:51:16.004> 
$GPVTG,,T,,M,0.069,N,0.127,K,A*2812:51:17.374> 
$GPGGA,085118.00,5312.79353,N,05010.53689,E,1,05,2.91,122.6,M,-6.4,M,,*4512:51:17.451> 
$GPGSA,A,3,12,11,25,06$GPRMC,085119.00,A,5312.79352,N,05010.53676,E,0.114,,200423,,,A*7D12:51:17.567> 
$GPVTG,,T,,M,0.114,N,0.211,K,A*2512:51:18.504> 
$GPGGA,085119.00,5312.79352,N,05010.53676,E,1,05,2.91,122.7,M,-6.4,M,,*4412:51:18.567> 
$GPGSA,A,3,12,11,25,06$GPRMC,085120.00,A,5312.79347,N,05010.53663,E,0.083,,200423,,,A*7812:51:18.664> 
$GPVTG,,T,,M,0.083,N,0.155,K,A*2912:51:19.648> 
$GPGGA,085120.00,5312.79347,N,05010.53663,E,1,05,2.91,122.7,M,-6.4,M,,*4E12:51:19.705> 
$GPGSA,A,3,12,11,25,06$GPRMC,085121.00,A,5312.79345,N,05010.53651,E,0.059,,200423,,,A*7D12:51:19.900> 
$GPVTG,,T,,M,0.059,N,0.109,K,A*2712:51:20.779> 
$GPGGA,085121.00,5312.79345,N,05010.53651,E,1,05,2.91,122.8,M,-6.4,M,,*4312:51:20.918> 
$GPGSA,A,3,12,11,25,06$GPRMC,085123.00,A,5312.79343,N,05010.53639,E,0.112,,200423,,,A*7912:51:21.007> 
$GPVTG,,T,,M,0.112,N,0.208,K,A*2B12:51:22.388> 
$GPGGA,085123.00,5312.79343,N,05010.53639,E,1,05,2.91,123.0,M,-6.4,M,,*4012:51:22.485> 
$GPGSA,A,3,12,11,25,06$GPRMC,085124.00,A,5312.79341,N,05010.53632,E,0.088,,200423,,,A*7512:51:22.616> 
$GPVTG,,T,,M,0.088,N,0.164,K,A*2012:51:23.532> 
$GPGGA,085124.00,5312.79341,N,05010.53632,E,1,05,2.91,123.0,M,-6.4,M,,*4E12:51:23.630> 
$GPGSA,A,3,12,11,25,06$GPRMC,085125.00,A,5312.79343,N,05010.53624,E,0.077,,200423,,,A*7112:51:23.752> 
$GPVTG,,T,,M,0.077,N,0.142,K,A*2412:51:24.674> 
$GPGGA,085125.00,5312.79343,N,05010.53624,E,1,05,2.91,123.1,M,-6.4,M,,*4B12:51:24.758> 
$GPGSA,A,3,12,11,25,06$GPRMC,085126.00,A,5312.79342,N,05010.53615,E,0.011,,200423,,,A*7112:51:24.866> 
$GPVTG,,T,,M,0.011,N,0.021,K,A*2012:51:25.777> 
$GPGGA,085126.00,5312.79342,N,05010.53615,E,1,05,2.91,123.2,M,-6.4,M,,*4812:51:25.924> 
$GPGSA,A,3,12,11,25,06$GPRMC,085128.00,A,5312.79345,N,05010.53606,E,0.076,,200423,,,A*7B12:51:26.037> 
$GPVTG,,T,,M,0.076,N,0.140,K,A*2712:51:27.355> 
$GPGGA,085128.00,5312.79345,N,05010.53606,E,1,05,2.91,123.3,M,-6.4,M,,*4212:51:27.419> 
$GPGSA,A,3,12,11,25,06$GPRMC,085129.00,A,5312.79345,N,05010.53596,E,0.090,,200423,,,A*7812:51:27.515> 
$GPVTG,,T,,M,0.090,N,0.167,K,A*2A12:51:28.501> 
$GPGGA,085129.00,5312.79345,N,05010.53596,E,1,05,2.91,123.4,M,-6.4,M,,*4E12:51:28.558> 
$GPGSA,A,3,12,11,25,06$GPRMC,085130.00,A,5312.79345,N,05010.53590,E,0.029,,200423,,,A*7412:51:28.748> 
$GPVTG,,T,,M,0.029,N,0.054,K,A*2912:51:29.638> 
$GPGGA,085130.00,5312.79345,N,05010.53590,E,1,05,2.91,123.5,M,-6.4,M,,*4112:51:29.704> 
$GPGSA,A,3,12,11,25,06$GPRMC,085131.00,A,5312.79345,N,05010.53584,E,0.067,,200423,,,A*7A12:51:29.807> 
$GPVTG,,T,,M,0.067,N,0.124,K,A*2512:51:30.782> 
$GPGGA,085131.00,5312.79345,N,05010.53584,E,1,05,2.91,123.6,M,-6.4,M,,*4612:51:30.918> 
$GPGSA,A,3,12,11,25,06$GPRMC,085133.00,A,5312.79366,N,05010.53593,E,0.087,,200423,,,A*7112:51:31.039> 
$GPVTG,,T,,M,0.087,N,0.162,K,A*2912:51:32.389> 
$GPGGA,085133.00,5312.79366,N,05010.53593,E,1,05,2.91,123.9,M,-6.4,M,,*4C12:51:32.472> 
$GPGSA,A,3,12,11,25,06$GPRMC,085134.00,A,5312.79370,N,05010.53593,E,0.041,,200423,,,A*7B12:51:32.594> 
$GPVTG,,T,,M,0.041,N,0.076,K,A*2712:51:33.493> 
$GPGGA,085134.00,5312.79370,N,05010.53593,E,1,05,2.91,124.0,M,-6.4,M,,*4212:51:33.564> 
$GPGSA,,0.010,N,0.018,K,0.010,N,0.018,KGPRMC,085135.00,A,5312.79380,N,05010.53596,E,0.010,,200423,,,A*7412:51:33.694> 
$GPVTG,,T,,M,A*2B12:51:34.630> 
$GPGGA,085135.00,5312.79380,N,05010.53596,E,1,05,2.91,124.1,M,-6.4,M,,*4812:51:34.776> 
$GPGSA,A,3,12,11,25,06$GPRMC,085136.00,A,5312.79394,N,05010.53605,E,0.130,,200423,,,A*7812:51:34.889> 
$GPVTG,,T,,M,0.130,N,0.241,K,A*2612:51:35.820> 
$GPGGA,085136.00,5312.79394,N,05010.53605,E,1,05,2.91,124.3,M,-6.4,M,,*4512:51:35.877> 
$GPGSA,A,3,12,11,25,06$GPRMC,085138.00,A,5312.79416,N,05010.53608,E,0.131,,200423,,,A*7712:51:35.958> 
$GPVTG,,T,,M,0.131,N,0.242,K,A*2412:51:37.326> 
$GPGGA,085138.00,5312.79416,N,05010.53608,E,1,05,2.91,124.5,M,-6.4,M,,*4D12:51:37.472> 
$GPGSA,A,3,12,11,25,06$GPRMC,085139.00,A,5312.79426,N,05010.53607,E,0.103,,200423,,,A*7B12:51:37.578> 
$GPVTG,,T,,M,0.103,N,0.190,K,A*2912:51:38.535> 
$GPGGA,085139.00,5312.79426,N,05010.53607,E,1,05,2.91,124.6,M,-6.4,M,,*4312:51:38.632> 
$GPGSA,A,3,12,11,25,06$GPRMC,085140.00,A,5312.79433,N,05010.53605,E,0.104,,200423,,,A*7412:51:38.787> 
$GPVTG,,T,,M,0.104,N,0.193,K,A*2D12:51:39.676> 
$GPGGA,085140.00,5312.79433,N,05010.53605,E,1,05,2.91,124.6,M,-6.4,M,,*4B12:51:39.757> 
$GPGSA,A,3,12,11,25,06$GPRMC,085141.00,A,5312.79436,N,05010.53604,E,0.163,,200423,,,A*7012:51:39.860> 
$GPVTG,,T,,M,0.163,N,0.302,K,A*2612:51:40.801> 
$GPGGA,085141.00,5312.79436,N,05010.53604,E,1,05,2.91,124.6,M,-6.4,M,,*4E12:51:40.866> 
$GPGSA,A,3,12,11,25,06$GPRMC,085143.00,A,5312.79428,N,05010.53591,E,0.084,,200423,,,A*7A12:51:40.955> 
$GPVTG,,T,,M,0.084,N,0.155,K,A*2E12:51:42.369> 
$GPGGA,085143.00,5312.79428,N,05010.53591,E,1,05,2.91,124.8,M,-6.4,M,,*4212:51:42.434> 
$GPGSA,A,3,12,11,25,06$GPRMC,085144.00,A,5312.79431,N,05010.53594,E,0.098,,200423,,,A*7D12:51:42.524> 
$GPVTG,,T,,M,0.098,N,0.182,K,A*2912:51:43.510> 
$GPGGA,085144.00,5312.79431,N,05010.53594,E,1,05,2.91,124.9,M,-6.4,M,,*4912:51:43.567> 
$GPGSA,A,3,12,11,25,06$GPRMC,085145.00,A,5312.79429,N,05010.53582,E,0.060,,200423,,,A*7512:51:43.657> 
$GPVTG,,T,,M,0.060,N,0.111,K,A*2412:51:44.675> 
$GPGGA,085145.00,5312.79429,N,05010.53582,E,1,05,2.91,124.9,M,-6.4,M,,*4612:51:44.756> 
$GPGSA,A,3,12,11,25,06$GPRMC,085146.00,A,5312.79427,N,05010.53575,E,0.107,,200423,,,A*7012:51:44.870> 
$GPVTG,,T,,M,0.107,N,0.198,K,A*2512:51:45.787> 
$GPGGA,085146.00,5312.79427,N,05010.53575,E,1,05,2.91,124.9,M,-6.4,M,,*4312:51:45.849> 
$GPGSA,A,3,12,11,25,06$GPRMC,085148.00,A,5312.79447,N,05010.53585,E,0.291,,200423,,,A*7B12:51:46.044> 
$GPVTG,,T,,M,0.291,N,0.539,K,A*2612:51:47.383> 
$GPGGA,085148.00,5312.79447,N,05010.53585,E,1,05,2.91,125.2,M,-6.4,M,,*4E12:51:47.464> 
$GPGSA,A,3,12,11,25,06$GPRMC,085149.00,A,5312.79463,N,05010.53602,E,0.437,,200423,,,A*7A12:51:47.578> 
$GPVTG,,T,,M,0.437,N,0.809,K,A*2212:51:48.543> 
$GPGGA,085149.00,5312.79463,N,05010.53602,E,1,05,2.91,125.3,M,-6.4,M,,*4412:51:48.633> 
$GPGSA,A,3,12,11,25,06$GPRMC,085150.00,A,5312.79470,N,05010.53603,E,0.242,,200423,,,A*7512:51:48.779> 
$GPVTG,,T,,M,0.242,N,0.448,K,A*2F12:51:49.664> 
$GPGGA,085150.00,5312.79470,N,05010.53603,E,1,05,2.91,125.5,M,-6.4,M,,*4912:51:49.737> 
$GPGSA,A,3,12,11,25,06$GPRMC,085151.00,A,5312.79477,N,05010.53604,E,0.097,,200423,,,A*7E12:51:49.819> 
$GPVTG,,T,,M,0.097,N,0.180,K,A*2412:51:50.820> 
$GPGGA,085151.00,5312.79477,N,05010.53604,E,1,05,2.91,125.8,M,-6.4,M,,*4512:51:50.886> 
$GPGSA,A,3,12,11,25,06$GPRMC,085153.00,A,5312.79500,N,05010.53622,E,0.141,,200423,,,A*7312:51:50.985> 
$GPVTG,,T,,M,0.141,N,0.261,K,A*2212:51:52.347> 
$GPGGA,085153.00,5312.79500,N,05010.53622,E,1,04,6.09,126.0,M,-6.4,M,,*4D12:51:52.412> 
$GPGSA,A,3,12,11,25,06$GPRMC,085154.00,A,5312.79506,N,05010.53629,E,0.156,,200423,,,A*7F12:51:52.501> 
$GPVTG,,T,,M,0.156,N,0.289,K,A*2212:51:53.502> 
$GPGGA,085154.00,5312.79506,N,05010.53629,E,1,04,6.10,126.1,M,-6.4,M,,*4E12:51:53.567> 
$GPGSA,A,3,12,11,25,06$GPRMC,085155.00,A,5312.79513,N,05010.53635,E,0.060,,200423,,,A*7312:51:53.649> 
$GPVTG,,T,,M,0.060,N,0.112,K,A*2712:51:54.642> 
$GPGGA,085155.00,5312.79513,N,05010.53635,E,1,04,6.11,126.2,M,-6.4,M,,*4412:51:54.708> 
$GPGSA,A,3,12,11,25,06$GPRMC,085156.00,A,5312.79530,N,05010.53642,E,0.109,,200423,,,A*7F12:51:54.895> 
$GPVTG,,T,,M,0.109,N,0.201,K,A*2812:51:55.798> 
$GPGGA,085156.00,5312.79530,N,05010.53642,E,1,04,6.11,126.3,M,-6.4,M,,*4712:51:55.863> 
$GPGSA,A,3,12,11,25,06$GPRMC,085158.00,A,5312.79562,N,05010.53659,E,0.088,,200423,,,A*7412:51:55.945> 
$GPVTG,,T,,M,0.088,N,0.163,K,A*2712:51:57.324> 
$GPGGA,085158.00,5312.79562,N,05010.53659,E,1,05,6.13,126.7,M,-6.4,M,,*4312:51:57.470> 
$GPGSA,A,3,12,11,25,06$GPRMC,085159.00,A,5312.79577,N,05010.53669,E,0.059,,200423,,,A*7E12:51:57.584> 
$GPVTG,,T,,M,0.059,N,0.109,K,A*2712:51:58.495> 
$GPGGA,085159.00,5312.79577,N,05010.53669,E,1,05,6.14,126.8,M,-6.4,M,,*4D12:51:58.560> 
$GPGSA,A,3,12,11,25,06$GPRMC,085200.00,A,5312.79590,N,05010.53677,E,0.116,,200423,,,A*7D12:51:58.650> 
$GPVTG,,T,,M,0.116,N,0.214,K,A*2212:51:59.638> 
$GPGGA,085200.00,5312.79590,N,05010.53677,E,1,05,6.15,127.0,M,-6.4,M,,*4C12:51:59.716> 
$GPGSA,A,3,12,11,25,06$GPRMC,085201.00,A,5312.79601,N,05010.53685,E,0.117,,200423,,,A*7B12:51:59.846> 
$GPVTG,,T,,M,0.117,N,0.217,K,A*2012:52:00.818> 
$GPGGA,085201.00,5312.79601,N,05010.53685,E,1,04,6.16,127.1,M,-6.4,M,,*4812:52:00.883> 
$GPGSA,A,3,12,11,25,06$GPRMC,085203.00,A,5312.79628,N,05010.53700,E,0.104,,200423,,,A*7C12:52:00.965> 
$GPVTG,,T,,M,0.104,N,0.192,K,A*2C12:52:02.342> 
$GPGGA,085203.00,5312.79628,N,05010.53700,E,1,04,6.18,127.5,M,-6.4,M,,*4712:52:02.415> 
$GPGSA,A,3,12,11,25,06$GPRMC,085204.00,A,5312.79641,N,05010.53704,E,0.077,,200423,,,A*7512:52:02.507> 
$GPVTG,,T,,M,0.077,N,0.142,K,A*2412:52:03.489> 
$GPGGA,085204.00,5312.79641,N,05010.53704,E,1,04,6.19,127.6,M,-6.4,M,,*4912:52:03.634> 
$GPGSA,A,3,12,11,25,06$GPRMC,085205.00,A,5312.79651,N,05010.53709,E,0.046,,200423,,,A*7A12:52:03.748> 
$GPVTG,,T,,M,0.046,N,0.085,K,A*2C12:52:04.636> 
$GPGGA,085205.00,5312.79651,N,05010.53709,E,1,04,6.20,127.8,M,-6.4,M,,*4012:52:04.756> 
$GPGSA,A,3,12,11,25,06$GPRMC,085206.00,A,5312.79658,N,05010.53713,E,0.075,,200423,,,A*7B12:52:04.879> 
$GPVTG,,T,,M,0.075,N,0.138,K,A*2B12:52:05.815> 
$GPGGA,085206.00,5312.79658,N,05010.53713,E,1,05,6.21,128.0,M,-6.4,M,,*4612:52:05.881> 
$GPGSA,A,3,12,11,25,06$GPRMC,085208.00,A,5312.79667,N,05010.53723,E,0.060,,200423,,,A*7E12:52:05.978> 
$GPVTG,,T,,M,0.060,N,0.112,K,A*2712:52:07.345> 
$GPGGA,085208.00,5312.79667,N,05010.53723,E,1,05,6.23,128.2,M,-6.4,M,,*4712:52:07.411> 
$GPGSA,A,3,12,11,25,06$GPRMC,085209.00,A,5312.79659,N,05010.53717,E,0.323,,200423,,,A*7112:52:07.508> 
$GPVTG,,T,,M,0.323,N,0.598,K,A*2A12:52:13.480> 
$GPGGA,085214.00,5312.79681,N,05010.53690,E,1,05,2.92,128.3,M,-6.4,M,,*4412:52:13.611> 
$GPGSA,A,3,12,11,25,06$GPRMC,085215.00,A,5312.79707,N,05010.53713,E,0.113,,200423,,,A*7312:52:13.726> 
$GPVTG,,T,,M,0.113,N,0.209,K,A*2B12:52:14.681> 
$GPGGA,085215.00,5312.79707,N,05010.53713,E,1,05,2.92,128.2,M,-6.4,M,,*4112:52:14.763> 
$GPGSA,A,3,12,11,25,06$GPRMC,085216.00,A,5312.79713,N,05010.53725,E,0.121,,200423,,,A*7112:52:14.877> 
$GPVTG,,T,,M,0.121,N,0.224,K,A*2512:52:15.788> 
$GPGGA,085216.00,5312.79713,N,05010.53725,E,1,05,2.92,127.8,M,-6.4,M,,*4712:52:15.934> 
$GPGSA,A,3,12,11,25,06$GPRMC,085218.00,A,5312.79694,N,05010.53727,E,0.106,,200423,,,A*7612:52:16.040> 
$GPVTG,,T,,M,0.106,N,0.196,K,A*2A12:52:17.267> 
$GPGGA,085218.00,5312.79694,N,05010.53727,E,1,05,2.92,127.2,M,-6.4,M,,*4F12:52:17.332> 
$GPGSA,A,3,12,11,25,06$GPRMC,085219.00,A,5312.79701,N,05010.53730,E,0.110,,200423,,,A*7B12:52:17.414> 
$GPVTG,,T,,M,0.110,N,0.203,K,A*2212:52:18.405> 
$GPGGA,085219.00,5312.79701,N,05010.53730,E,1,05,2.92,127.0,M,-6.4,M,,*4712:52:18.478> 
$GPGSA,A,3,12,11,25,06$GPRMC,085220.00,A,5312.79695,N,05010.53761,E,0.617,,200423,,,A*7912:52:18.575> 
$GPVTG,,T,,M,0.617,N,1.142,K,A*2512:52:19.577> 
$GPGGA,085220.00,5312.79695,N,05010.53761,E,1,05,2.92,126.6,M,-6.4,M,,*4212:52:19.658> 
$GPGSA,A,3,12,11,25,06$GPRMC,085221.00,A,5312.79710,N,05010.53769,E,0.529,,200423,,,A*7212:52:19.770> 
$GPVTG,,T,,M,0.529,N,0.980,K,A*2C12:52:20.731> 
$GPGGA,085221.00,5312.79710,N,05010.53769,E,1,05,2.92,126.5,M,-6.4,M,,*4412:52:20.804> 
$GPGSA,A,3,12,11,25,06$GPRMC,085223.00,A,5312.79771,N,05010.53699,E,0.923,,200423,,,A*7F12:52:20.911> 
$GPVTG,,T,,M,0.923,N,1.708,K,A*2512:52:21.859> 
$GPGGA,085223.00,5312.79771,N,05010.53699,E,1,05,2.92,126.5,M,-6.4,M,,*4F12:52:21.924> 
$GPGSA,A,3,12,11,25,06$GPRMC,085224.00,A,5312.79799,N,05010.53613,E,1.462,,200423,,,A*7512:52:22.006> 
$GPVTG,,T,,M,1.462,N,2.707,K,A*2012:52:23.454> 
$GPGGA,085224.00,5312.79799,N,05010.53613,E,1,05,2.92,126.2,M,-6.4,M,,*4B12:52:23.528> 
$GPGSA,A,3,12,11,25,06$GPRMC,085225.00,A,5312.79845,N,05010.53535,E,1.840,,200423,,,A*7112:52:23.643> 
$GPVTG,,T,,M,1.840,N,3.408,K,A*2112:52:24.591> 
$GPGGA,085225.00,5312.79845,N,05010.53535,E,1,05,2.92,126.0,M,-6.4,M,,*4112:52:24.656> 
$GPGSA,A,3,12,11,25,06$GPRMC,085226.00,A,5312.79887,N,05010.53440,E,2.128,,200423,,,A*7B12:52:24.743> 
$GPVTG,,T,,M,2.128,N,3.940,K,A*2412:52:25.747> 
$GPGGA,085226.00,5312.79887,N,05010.53440,E,1,05,2.92,126.0,M,-6.4,M,,*4F12:52:25.820> 
$GPGSA,A,3,12,11,25,06$GPRMC,085227.00,A,5312.79925,N,05010.53367,E,2.118,,200423,,,A*7212:52:25.943> 
$GPVTG,,T,,M,2.118,N,3.923,K,A*2212:52:27.469> 
$GPGGA,085227.00,5312.79925,N,05010.53367,E,1,05,2.92,125.9,M,-6.4,M,,*4F12:52:27.568> 
$GPGSA,A,3,12,11,25,06$GPRMC,085229.00,A,5312.80038,N,05010.53208,E,2.420,310.86,200423,,,A*6B12:52:27.683> 
$GPVTG,310.86,T,,M,2.420,N,4.482,K,A*3F12:52:28.623> 
$GPGGA,085229.00,5312.80038,N,05010.53208,E,1,05,2.92,126.2,M,-6.4,M,,*4212:52:28.704> 
$GPGSA,A,3$GPRMC,085230.00,A,5312.80080,N,05010.53153,E,2.361,316.40,200423,,,A*6312:52:28.818> 
$GPVTG,316.40,T,,M,2.361,N,4.373,K,A*3812:52:29.756> 
$GPGGA,085230.00,5312.80080,N,05010.53153,E,1,05,2.92,126.1,M,-6.4,M,,*4712:52:29.837> 
$GPGSA,A,3$GPRMC,085231.00,A,5312.80137,N,05010.53105,E,2.446,322.77,200423,,,A*6D12:52:29.943> 
$GPVTG,322.77,T,,M,2.446,N,4.530,K,A*3812:52:31.443> 
$GPGGA,085231.00,5312.80137,N,05010.53105,E,1,05,2.92,126.1,M,-6.4,M,,*4812:52:31.525> 
$GPGSA,A,3$GPRMC,085233.00,A,5312.80233,N,05010.52988,E,2.412,328.54,200423,,,A*6E12:52:31.639> 
$GPVTG,328.54,T,,M,2.412,N,4.467,K,A*3112:52:32.586> 
$GPGGA,085233.00,5312.80233,N,05010.52988,E,1,05,2.92,126.2,M,-6.4,M,,*4212:52:32.651> 
$GPGSA,A,3$GPRMC,085234.00,A,5312.80263,N,05010.52922,E,2.322,329.34,200423,,,A*6F12:52:32.749> 
$GPVTG,329.34,T,,M,2.322,N,4.300,K,A*3412:52:33.734> 
$GPGGA,085234.00,5312.80263,N,05010.52922,E,1,05,2.92,125.8,M,-6.4,M,,*4912:52:33.800> 
$GPGSA,A,3$GPRMC,085235.00,A,5312.80329,N,05010.52881,E,2.392,331.34,200423,,,A*6B12:52:33.892> 
$GPVTG,331.34,T,,M,2.392,N,4.430,K,A*3212:52:34.890> 
$GPGGA,085235.00,5312.80329,N,05010.52881,E,1,05,2.92,126.2,M,-6.4,M,,*4612:52:34.971> 
$GPGSA,A,3$GPRMC,085237.00,A,5312.80459,N,05010.52819,E,2.324,337.40,200423,,,A*6012:52:35.082> 
$GPVTG,337.40,T,,M,2.324,N,4.304,K,A*3A12:52:36.410> 
$GPGGA,085237.00,5312.80459,N,05010.52819,E,1,05,2.92,126.8,M,-6.4,M,,*4F12:52:36.491> 
$GPGSA,A,3$GPRMC,085238.00,A,5312.80531,N,05010.52826,E,2.334,346.50,200423,,,A*6A12:52:36.605> 
$GPVTG,346.50,T,,M,2.334,N,4.322,K,A*3812:52:37.541> 
$GPGGA,085238.00,5312.80531,N,05010.52826,E,1,05,2.92,127.3,M,-6.4,M,,*4912:52:37.606> 
$GPGSA,A,3$GPRMC,085239.00,A,5312.80594,N,05010.52842,E,2.308,353.01,200423,,,A*6912:52:37.693> 
$GPVTG,353.01,T,,M,2.308,N,4.274,K,A*3512:52:38.723> 
$GPGGA,085239.00,5312.80594,N,05010.52842,E,1,05,2.92,127.4,M,-6.4,M,,*4212:52:38.820> 
$GPGSA,A,3$GPRMC,085240.00,A,5312.80665,N,05010.52869,E,2.372,1.22,200423,,,A*6B12:52:38.934> 
$GPVTG,1.22,T,,M,2.372,N,4.392,K,A*3412:52:39.838> 
$GPGGA,085240.00,5312.80665,N,05010.52869,E,1,05,2.92,127.7,M,-6.4,M,,*4B12:52:39.903> 
$GPGSA,A,3,12,$,4.5,4.5C,085242.00,A,5312.80809,N,05010.52894,E,2.468,5.69,200423,,,A*6812:52:40.028> 
$GPVTG,5.69,T,,M,2.468,N71,K,A*3812:52:41.392> 
$GPGGA,085242.00,5312.80809,N,05010.52894,E,1,05,2.92,128.1,M,-6.4,M,,*4612:52:41.457> 
$GPGSA,A,3,12,$GPRMC,085243.00,A,5312.80871,N,05010.52923,E,2.481,8.85,200423,,,A*6312:52:41.554> 
$GPVTG,8.85,T,,M,2.481,N,4.595,K,A*3A12:52:42.576> 
$GPGGA,085243.00,5312.80871,N,05010.52923,E,1,05,2.92,128.3,M,-6.4,M,,*4712:52:42.676> 
$GPGSA,A,3,12,$GPRMC,085244.00,A,5312.80939,N,05010.52970,E,2.479,12.00,200423,,,A*5E12:52:42.798> 
$GPVTG,12.00,T,,M,2.479,N,4.592,K,A*0C12:52:43.722> 
$GPGGA,085244.00,5312.80939,N,05010.52970,E,1,05,2.92,128.6,M,-6.4,M,,*4E12:52:43.803> 
$GPGSA,A,3,1$GPRMC,085245.00,A,5312.80998,N,05010.53015,E,2.352,13.84,200423,,,A*5C12:52:43.925> 
$GPVTG,13.84,T,,M,2.352,N,4.356,K,A*0112:52:44.852> 
$GPGGA,085245.00,5312.80998,N,05010.53015,E,1,05,2.92,129.0,M,-6.4,M,,*4812:52:44.909> 
$GPGSA,A,3,1$GPRMC,085247.00,A,5312.81129,N,05010.53079,E,2.335,17.75,200423,,,A*5C12:52:45.007> 
$GPVTG,17.75,T,,M,2.335,N,4.324,K,A*0F12:52:46.400> 
$GPGGA,085247.00,5312.81129,N,05010.53079,E,1,05,2.92,123,,,A*523,,,A*56.4,M,,*4712:52:46.514> 
$GPGSA,A,3,1$GPRMC,085248.00,A,5312.81194,N,05010.53122,E,2.335,18.73,2004312:52:46.645> 
$GPVTG,18.73,T,,M,2.335,N,4.324,K,A*0612:52:47.523> 
$GPGGA,085248.00,5312.81194,N,05010.53122,E,1,05,2.92,129.7,M,-6.4,M,,*4212:52:47.580> 
$GPGSA,A,3,1$GPRMC,085249.00,A,5312.81264,N,05010.53177,E,2.478,22.09,200423,,,A*5412:52:47.669> 
$GPVTG,22.09,T,,M,2.478,N,4.589,K,A*0D12:52:48.702> 
$GPGGA,085249.00,5312.81264,N,05010.53177,E,1,05,2.92,129.9,M,-6.4,M,,*4112:52:48.799> 
$GPGSA,A,3,1$GPRMC,085250.00,A,5312.81293,N,05010.53238,E,2.044,,200423,,,A*7012:52:48.913> 
$GPVTG,,T,,M,2.044,N,3.786,K,A*2B12:52:49.836> 
$GPGGA,085250.00,5312.81293,N,05010.53238,E,1,05,2.92,130.0,M,-6.4,M,,*4812:52:49.918> 
$GPGSA,A,3,12,11,25,06$GPRMC,085252.00,A,5312.81329,N,05010.53311,E,1.231,,200423,,,A*7B12:52:50.031> 
$GPVTG,,T,,M,1.231,N,2.280,K,A*2A12:52:51.327> 
$GPGGA,085252.00,5312.81329,N,05010.53311,E,1,05,2.92,130.8,M,-6.4,M,,*4812:52:51.473> 
$GPGSA,A,3,12,11,25,06$GPRMC,085253.00,A,5312.81331,N,05010.53334,E,0.752,,200423,,,A*7512:52:51.579> 
$GPVTG,,T,,M,0.752,N,1.392,K,A*2A12:52:52.478> 
$GPGGA,085253.00,5312.81331,N,05010.53334,E,1,05,2.92,131.6,M,-6.4,M,,*4812:52:52.614> 
$GPGSA,A,3,12,11,25,06$GPRMC,085254.00,A,5312.81408,N,05010.53425,E,1.498,,200423,,,A*7C12:52:52.729> 
$GPVTG,,T,,M,1.498,N,2.774,K,A*2112:52:53.659> 
$GPGGA,085254.00,5312.81408,N,05010.53425,E,1,05,2.92,132.3,M,-6.4,M,,*4312:52:53.724> 
$GPGSA,A,3,12,11,25,06$GPRMC,085255.00,A,5312.81446,N,05010.53497,E,1.612,,200423,,,A*7E12:52:53.806> 
$GPVTG,,T,,M,1.612,N,2.985,K,A*2112:52:54.803> 
$GPGGA,085255.00,5312.81446,N,05010.53497,E,1,05,2.92,133.0,M,-6.4,M,,*4312:52:54.857> 
$GPGSA,A,3,12,11,25,06$GPRMC,085257.00,A,5312.81541,N,05010.53631,E,1.755,,200423,,,A*7612:52:55.014> 
$GPVTG,,T,,M,1.755,N,3.250,K,A*2112:52:56.326> 
$GPGGA,085257.00,5312.81541,N,05010.53631,E,1,05,2.92,134.8,M,-6.4,M,,*4612:52:56.472> 
$GPGSA,A,3,12,11,25,06$GPRMC,085258.00,A,5312.81590,N,05010.53707,E,1.845,,200423,,,A*7F12:52:56.579> 
$GPVTG,,T,,M,1.845,N,3.417,K,A*2A12:52:57.532> 
$GPGGA,085258.00,5312.81590,N,05010.53707,E,1,05,2.92,135.6,M,-6.4,M,,*4E12:52:57.613> 
$GPGSA,A,3,12,11,25,06$GPRMC,085259.00,A,5312.81642,N,05010.53776,E,1.791,,200423,,,A*7212:52:57.730> 
$GPVTG,,T,,M,1.791,N,3.316,K,A*2A12:52:58.655> 
$GPGGA,085259.00,5312.81642,N,05010.53776,E,1,05,2.92,136.4,M,-6.4,M,,*4412:52:58.721> 
$GPGSA,A,3,12,11,25,06$GPRMC,085300.00,A,5312.81696,N,05010.53844,E,1.901,,200423,,,A*7F12:52:58.803> 
$GPVTG,,T,,M,1.901,N,3.521,K,A*2F12:52:59.788> 
$GPGGA,085300.00,5312.81696,N,05010.53844,E,1,05,2.92,137.0,M,-6.4,M,,*4B12:52:59.867> 
$GPGSA,A,3,12,11,25,06$GPRMC,085302.00,A,5312.81820,N,05010.53938,E,1.757,,200423,,,A*7912:52:59.964> 
$GPVTG,,T,,M,1.757,N,3.254,K,A*2712:53:01.364> 
$GPGGA,085302.00,5312.81820,N,05010.53938,E,1,05,2.92,138.7,M,-6.4,M,,*4812:53:01.430> 
$GPGSA,A,3,12,11,25,06$GPRMC,085303.00,A,5312.81902,N,05010.53978,E,1.781,,200423,,,A*7612:53:01.528> 
$GPVTG,,T,,M,1.781,N,3.299,K,A*2D12:53:02.497> 
$GPGGA,085303.00,5312.81902,N,05010.53978,E,1,05,2.92,140.0,M,-6.4,M,,*4412:53:02.611> 
$GPGSA,A,3,12,11,25,06$GPRMC,085304.00,A,5312.82083,N,05010.53998,E,3.426,14.75,200423,,,A*5912:53:02.692> 
$GPVTG,14.75,T,,M,3.426,N,6.345,K,A*0D12:53:03.682> 
$GPGGA,085304.00,5312.82083,N,05010.53998,E,1,05,2.92,140.9,M,-6.4,M,,*4712:53:03.756> 
$GPGSA,A,3,1$GPRMC,085305.00,A,5312.82242,N,05010.54054,E,4.105,13.31,200423,,,A*5D12:53:03.870> 
$GPVTG,13.31,T,,M,4.105,N,7.603,K,A*0F12:53:04.847> 
$GPGGA,085305.00,5312.82242,N,05010.54054,E,1,05,2.92,141.8,M,-6.4,M,,*4712:53:04.936> 
$GPGSA,A,3,1$GPRMC,085307.00,A,5312.82388,N,05010.54221,E,3.360,18.55,200423,,,A*5712:53:05.047> 
$GPVTG,18.55,T,,M,3.360,N,6.223,K,A*0712:53:06.399> 
$GPGGA,085307.00,5312.82388,N,05010.54221,E,1,05,2.92,143.4,M,-,M,2.454,N,4.545,M,2.454,N,4.545SA,A,3,1$GPRMC,085308.00,A,5312.82397,N,05010.54277,E,2.454,,200423,,,A*7312:53:06.537> 
$GPVTG,,T,,K,A*2412:53:07.485> 
$GPGGA,085308.00,5312.82397,N,05010.54277,E,1,05,2.92,144.1,M,-6.4,M,,*4C12:53:07.629> 
$GPGSA,A,3,12,11,25,06$GPRMC,085309.00,A,5312.82415,N,05010.54338,E,1.701,,200423,,,A*7512:53:07.751> 
$GPVTG,,T,,M,1.701,N,3.150,K,A*2312:53:08.659> 
$GPGGA,085309.00,5312.82415,N,05010.54338,E,1,05,2.92,145.3,M,-6.4,M,,*4912:53:08.724> 
$GPGSA,A,3,12,11,25,06$GPRMC,085310.00,A,5312.82445,N,05010.54395,E,1.408,,200423,,,A*7512:53:08.822> 
$GPVTG,,T,,M,1.408,N,2.607,K,A*2D12:53:09.788> 
$GPGGA,085310.00,5312.82445,N,05010.54395,E,1,05,2.92,146.4,M,-6.4,M,,*4712:53:09.854> 
$TG,,T,,M,1.363,NTG,,T,,M,1.363,N25,06$GPRMC,085312.00,A,5312.82475,N,05010.54561,E,1.363,,200423,,,A*7312:53:09.982> 
$GPV,2.524,K,A*2512:53:11.372> 
$GPGGA,085312.00,5312.82475,N,05010.54561,E,1,05,2.92,148.3,M,-6.4,M,,*4212:53:11.453> 
$GPGSA,A,3,12,11,25,06$GPRMC,085313.00,A,5312.82463,N,05010.54602,E,1.027,,200423,,,A*7012:53:11.567> 
$GPVTG,,T,,M,1.027,N,1.902,K,A*2D12:53:12.515> 
$GPGGA,085313.00,5312.82463,N,05010.54602,E,1,05,2.92,149.3,M,-6.4,M,,*4312:53:12.580> 
$GPGSA,A,3,12,11,25,06$GPRMC,085314.00,A,5312.82480,N,05010.54685,E,1.104,,200423,,,A*7512:53:12.677> 
$GPVTG,,T,,M,1.104,N,2.044,K,A*2512:53:13.679> 
$GPGGA,085314.00,5312.82480,N,05010.54685,E,1,05,2.92,150.1,M,-6.4,M,,*4C12:53:13.766> 
$GPGSA,A,3,12,11,25,06$GPRMC,085315.00,A,5312.82499,N,05010.54739,E,1.102,,200423,,,A*7C12:53:13.880> 
$GPVTG,,T,,M,1.102,N,2.040,K,A*2712:53:14.832> 
$GPGGA,085315.00,5312.82499,N,05010.54739,E,1,05,2.92,150.9,M,-6.4,M,,*4B12:53:14.910> 
$GPGSA,A,3,12,11,25,06$GPRMC,085317.00,A,5312.82568,N,05010.54854,E,1.383,,200423,,,A*7E12:53:15.025> 
$GPVTG,,T,,M,1.383,N,2.562,K,A*2912:53:16.366> 
$GPGGA,085317.00,5312.82568,N,05010.54854,E,1,05,2.92,151.3,M,-6.4,M,,*4912:53:16.431> 
$GPGSA,A,3,12,11,25,06$GPRMC,085318.00,A,5312.82601,N,05010.54945,E,1.609,,200423,,,A*7B12:53:16.521> 
$GPVTG,,T,,M,1.609,N,2.980,K,A*2E12:53:17.502> 
$GPGGA,085318.00,5312.82601,N,05010.54945,E,1,05,2.92,151.9,M,-6.4,M,,*4112:53:17.567> 
$GPGSA,A,3,12,11,25,06$GPRMC,085319.00,A,5312.82576,N,05010.54969,E,1.043,,200423,,,A*7F12:53:17.667> 
$GPVTG,,T,,M,1.043,N,1.931,K,A*2F12:53:18.640> 
$GPGGA,085319.00,5312.82576,N,05010.54969,E,1,05,2.92,152.2,M,-6.4,M,,*4512:53:18.705> 
$GPGSA,A,3,12,11,25,06$GPRMC,085320.00,A,5312.82528,N,05010.55014,E,0.997,,200423,,,A*7D12:53:18.917> 
$GPVTG,,T,,M,0.997,N,1.846,K,A*2F12:53:19.824> 
$GPGGA,085320.00,5312.82528,N,05010.55014,E,1,05,2.92,152.4,M,-6.4,M,,*4012:53:19.909> 
$GPGSA,A,3,12,11,25,06$GPRMC,085322.00,A,5312.82444,N,05010.55099,E,1.233,,200423,,,A*7512:53:20.015> 
$GPVTG,,T,,M,1.233,N,2.283,K,A*2B12:53:21.352> 
$GPGGA,085322.00,5312.82444,N,05010.55099,E,1,05,2.92,152.7,M,-6.4,M,,*4F12:53:21.433> 
$GPGSA,A,3,12,11,25,06$GPRMC,085323.00,A,5312.82409,N,05010.55182,E,1.528,,200423,,,A*7B12:53:21.564> 
$GPVTG,,T,,M,1.528,N,2.829,K,A*2C12:53:22.499> 
$GPGGA,085323.00,5312.82409,N,05010.55182,E,1,05,2.92,152.7,M,-6.4,M,,*4C12:53:22.565> 
$GPGSA,A,3,12,11,25,06$GPRMC,085324.00,A,5312.82341,N,05010.55265,E,1.937,,200423,,,A*7F12:53:22.668> 
$GPVTG,,T,,M,1.937,N,3.587,K,A*2612:53:23.659> 
$GPGGA,085324.00,5312.82341,N,05010.55265,E,1,05,2.92,152.6,M,-6.4,M,,*4B12:53:23.724> 
$GPGSA,A,3,12,11,25,06$GPRMC,085325.00,A,5312.82273,N,05010.55347,E,2.200,,200423,,,A*7312:53:23.814> 
$GPVTG,,T,,M,2.200,N,4.074,K,A*2412:53:24.792> 
$GPGGA,085325.00,5312.82273,N,05010.55347,E,1,05,2.92,152.5,M,-6.4,M,,*4812:53:24.911> 
$GPGSA,A,3,12,11,25,06$GPRMC,085327.00,A,5312.82352,N,05010.55563,E,2.104,,200423,,,A*7412:53:24.993> 
$GPVTG,,T,,M,2.104,N,3.897,K,A*2112:53:26.345> 
$GPGGA,085327.00,5312.82352,N,05010.55563,E,1,05,2.92,152.5,M,-6.4,M,,*4812:53:26.420> 
$GPGSA,A,3,12,11,4.064,K,A*2,4.064,K,A*2,085328.00,A,5312.82348,N,05010.55685,E,2.194,,200423,,,A*7212:53:26.550> 
$GPVTG,,T,,M,2.194,NB12:53:27.500> 
$GPGGA,085328.00,5312.82348,N,05010.55685,E,1,05,2.92,152.6,M,-6.4,M,,*4412:53:27.557> 
$GPGSA,A,3,12,11,25,06$GPRMC,085329.00,A,5312.82318,N,05010.55783,E,2.084,,200423,,,A*7112:53:27.753> 
$GPVTG,,T,,M,2.084,N,3.860,K,A*2012:53:28.626> 
$GPGGA,085329.00,5312.82318,N,05010.55783,E,1,05,2.92,152.5,M,-6.4,M,,*4412:53:28.774> 
$GPGSA,A,3,12,11,25,06$GPRMC,085330.00,A,5312.82255,N,05010.55849,E,1.888,,200423,,,A*7F12:53:28.879> 
$GPVTG,,T,,M,1.888,N,3.496,K,A*2212:53:29.835> 
$GPGGA,085330.00,5312.82255,N,05010.55849,E,1,05,2.92,152.6,M,-6.4,M,,*4E12:53:29.922> 
$GPGSA,A,3,12,11,25,06$GPRMC,085332.00,A,5312.82370,N,05010.55929,E,1.729,,200423,,,A*7812:53:30.035> 
$GPVTG,,T,,M,1.729,N,3.202,K,A*2D12:53:31.337> 
$GPGGA,085332.00,5312.82370,N,05010.55929,E,1,05,2.92,151.5,M,-6.4,M,,*4D12:53:31.484> 
$GPGSA,A,3,12,11,25,06$GPRMC,085333.00,A,5312.82487,N,05010.55973,E,2.460,,200423,,,A*7412:53:31.599> 
$GPVTG,,T,,M,2.460,N,4.556,K,A*2112:53:32.526> 
$GPGGA,085333.00,5312.82487,N,05010.55973,E,1,05,2.92,150.6,M,-6.4,M,,*4E12:53:32.607> 
$GPGSA,A,3,12,11,25,06$GPRMC,085334.00,A,5312.82503,N,05010.56110,E,2.631,,200423,,,A*7612:53:32.729> 
$GPVTG,,T,,M,2.631,N,4.873,K,A*2D12:53:33.662> 
$GPGGA,085334.00,5312.82503,N,05010.56110,E,1,05,2.92,150.0,M,-6.4,M,,*4C12:53:33.728> 
$GPGSA,A,3,12,11,25,06$GPRMC,085335.00,A,5312.82459,N,05010.56173,E,1.942,,200423,,,A*7412:53:33.809> 
$GPVTG,,T,,M,1.942,N,3.597,K,A*2512:53:34.795> 
$GPGGA,085335.00,5312.82459,N,05010.56173,E,1,05,2.92,149.7,M,-6.4,M,,*4912:53:34.860> 
$GPGSA,A,3,12,11,25,06$GPRMC,085337.00,A,5312.82287,N,05010.56331,E,1.676,,200423,,,A*7F12:53:35.045> 
$GPVTG,,T,,M,1.676,N,3.104,K,A*2312:53:36.367> 
$GPGGA,085337.00,5312.82287,N,05010.56331,E,1,05,2.92,148.5,M,-6.4,M,,*4912:53:36.432> 
$GPGSA,A,3,12,11,25,06$GPRMC,085338.00,A,5312.82197,N,05010.56413,E,1.887,,200423,,,A*7512:53:36.513> 
$GPVTG,,T,,M,1.887,N,3.495,K,A*2E12:53:37.504> 
$GPGGA,085338.00,5312.82197,N,05010.56413,E,1,05,2.92,147.1,M,-6.4,M,,*4812:53:37.569> 
$GPGSA,A,3,12,11,25,06$GPRMC,085339.00,A,5312.82088,N,05010.56487,E,2.147,,200423,,,A*7012:53:37.664> 
$GPVTG,,T,,M,2.147,N,3.976,K,A*2812:53:38.643> 
$GPGGA,085339.00,5312.82088,N,05010.56487,E,1,05,2.92,145.4,M,-6.4,M,,*4C12:53:38.716> 
$GPGSA,A,3,12,11,25,06$GPRMC,085340.00,A,5312.82037,N,05010.56575,E,2.127,,200423,,,A*7012:53:38.806> 
$GPVTG,,T,,M,2.127,N,3.940,K,A*2B12:53:39.828> 
$GPGGA,085340.00,5312.82037,N,05010.56575,E,1,04,7.28,145.0,M,-6.4,M,,*4B12:53:39.914> 
$GPGSA,A,3,12,11,25,06$GPRMC,085342.00,A,5312.81900,N,05010.56713,E,2.085,,200423,,,A*7712:53:40.028> 
$GPVTG,,T,,M,2.085,N,3.861,K,A*2012:53:41.342> 
$GPGGA,085342.00,5312.81900,N,05010.56713,E,1,05,7.31,144.7,M,-6.4,M,,*4A12:53:41.407> 
$GPGSA,A,3,12,11,25,06$GPRMC,085343.00,A,5312.81837,N,05010.56770,E,2.022,,200423,,,A*7B12:53:41.602> 
$GPVTG,,T,,M,2.022,N,3.744,K,A*2F12:53:46.373> 
$GPGGA,085347.00,5312.81733,N,05010.57126,E,1,05,2.92,147.5,M,-6.4,M,,*4D12:53:46.438> 
$GPGSA,A,3,12,11,25,06$GPRMC,085348.00,A,5312.81694,N,05010.57194,E,1.863,,200423,,,A*7412:53:46.527> 
$GPVTG,,T,,M,1.863,N,3.450,K,A*2D12:53:47.541> 
$GPGGA,085348.00,5312.81694,N,05010.57194,E,1,05,2.92,148.9,M,-6.4,M,,*4412:53:47.638> 
$GPGSA,A,3,12,11,25,06$GPRMC,085349.00,A,5312.81646,N,05010.57258,E,1.929,,200423,,,A*7612:53:47.752> 
$GPVTG,,T,,M,1.929,N,3.572,K,A*2312:53:48.683> 
$GPGGA,085349.00,5312.81646,N,05010.57258,E,1,05,2.92,150.5,M,-6.4,M,,*4C12:53:48.764> 
$GPGSA,A,3,12,11,25,06$GPRMC,085350.00,A,5312.81599,N,05010.57302,E,1.932,,200423,,,A*7B12:53:48.886> 
$GPVTG,,T,,M,1.932,N,3.578,K,A*2B12:53:51.358> 
$GPGGA,085352.00,5312.81578,N,05010.57533,E,1,05,2.92,153.2,M,-6.4,M,,*4612:53:51.420> 
$GPGSA,A,3,12,11,25,06$GPRMC,085353.00,A,5312.81485,N,05010.57564,E,1.953,,200423,,,A*7512:53:51.608> 
$GPVTG,,T,,M,1.953,N,3.618,K,A*2112:53:52.502> 
$GPGGA,085353.00,5312.81485,N,05010.57564,E,1,05,2.92,153.4,M,-6.4,M,,*4012:53:52.649> 
$GPGSA,A,3,12,11,25,06$GPRMC,085354.00,A,5312.81401,N,05010.57611,E,2.087,,200423,,,A*7C12:53:52.754> 
$GPVTG,,T,,M,2.087,N,3.866,K,A*2512:53:53.648> 
$GPGGA,085354.00,5312.81401,N,05010.57611,E,1,05,2.92,153.6,M,-6.4,M,,*4812:53:53.770> 
$GPGSA,A,3,12,11,25,06$GPRMC,085355.00,A,5312.81332,N,05010.57672,E,2.101,73.19,200423,,,A*5212:53:53.859> 
$GPVTG,73.19,T,,M,2.101,N,3.891,K,A*0012:53:54.844> 
$GPGGA,085355.00,5312.81332,N,05010.57672,E,1,05,2.92,153.2,M,-6.4,M,,*4F12:53:54.917> 
$GPGSA,A,3,1$GPRMC,085357.00,A,5312.81200,N,05010.57808,E,2.137,125.15,200423,,,A*6812:53:55.038> 
$GPVTG,125.15,T,,M,2.137,N,3.958,K,A*3F12:53:56.388> 
$GPGGA,085357.00,5312.81200,N,05010.57808,E,1,05,2.92,152.5,M,-6.4,M,,*4812:53:56.470> 
$GPGSA,A,3$GPRMC,085358.00,A,5312.81113,N,05010.57863,E,2.201,134.13,200423,,,A*6B12:53:56.592> 
$GPVTG,134.13,T,,M,2.201,N,4.076,K,A*3D12:53:57.501> 
$GPGGA,085358.00,5312.81113,N,05010.57863,E,1,05,2.92,152.1,M,-6.4,M,,*4F12:53:57.651> 
$GPGSA,A,3$GPRMC,085359.00,A,5312.81032,N,05010.57919,E,2.126,135.64,200423,,,A*6312:53:57.758> 
$GPVTG,135.64,T,,M,2.126,N,3.938,K,A*3E12:53:58.707> 
$GPGGA,085359.00,5312.81032,N,05010.57919,E,1,05,2.92,151.7,M,-6.4,M,,*4512:53:58.790> 
$GPGSA,A,3$GPRMC,085400.00,A,5312.80966,N,05010.57983,E,2.147,138.56,200423,,,A*6912:53:58.896> 
$GPVTG,138.56,T,,M,2.147,N,3.977,K,A*3E12:53:59.841> 
$GPGGA,085400.00,5312.80966,N,05010.57983,E,1,05,2.92,151.4,M,-6.4,M,,*4712:53:59.922> 
$GPGSA,A,3$GPRMC,085402.00,A,5312.80845,N,05010.58089,E,2.030,140.81,200423,,,A*6312:54:00.043> 
$GPVTG,140.81,T,,M,2.030,N,3.760,K,A*3212:54:01.375> 
$GPGGA,085402.00,5312.80845,N,05010.58089,E,1,05,2.92,151.2,M,-6.4,M,,*4F12:54:01.449> 
$GPGSA,A,3$GPRNNC,085403.00,A,5312.80771,N,05010.58151,E,2.124,139.58,200423,,,A*6012:54:01.564> 
$GPVTG,139.58,T,,M,2.124,,3.934,K,A*3312:54:02.570> 
$GPGGA,085403.00,5312.80771,N,05010.58151,E,1,05,2.92,151.0,M,-6.4,M,,*4012:54:02.667> 
$GPGSA,A,3$GPRMC,085404.00,A,5312.80578,N,05010.58155,E,2.208,141.74,200423,,,A*6412:54:02.781> 
$GPVTG,141.74,T,,M,2.208,N,4.089,K,A*3712:54:03.668> 
$GPGGA,085404.00,5312.80578,N,05010.58155,E,1,06,1.76,147.4,M,-6.4,M,,*4112:54:03.791> 
$GPGSA,A,3$GPRMC,085405.00,A,5312.80452,N,05010.58166,E,2.166,145.74,200423,,,A*6312:54:03.888> 
$GPVTG,145.74,T,,M,2.166,N,4.011,K,A*3912:54:04.868> 
$GPGGA,085405.00,5312.80452,N,05010.58166,E,1,06,1.76,145.7,M,-6.4,M,,*4812:54:04.949> 
$GPGSA,A,3$GPRMC,085407.00,A,5312.80285,N,05010.58239,E,1.956,,200423,,,A*7112:54:05.055> 
$GPVTG,,T,,M,1.956,N,3.622,K,A*2D12:54:06.405> 
$GPGGA,085407.00,5312.80285,N,05010.58239,E,1,06,1.76,143.5,M,-6.4,M,,*4B12:54:06.486> 
$GPGSA,A,3,12,11,25,06$GPRMC,085408.00,A,5312.80210,N,05010.58296,E,2.005,,200423,,,A*7B12:54:06.601> 
$GPVTG,,T,,M,2.005,N,3.713,K,A*2212:54:07.515> 
$GPGGA,085408.00,5312.80210,N,05010.58296,E,1,06,1.76,142.7,M,-6.4,M,,*4E12:54:07.580> 
$GPGSA,A,3,12,11,25,06$GPRMC,085409.00,A,5312.80132,N,05010.58352,E,2.072,,200423,,,A*7012:54:07.675> 
$GPVTG,,T,,M,2.072,N,3.837,K,A*2B12:54:08.662> 
$GPGGA,085409.00,5312.80132,N,05010.58352,E,1,06,1.76,142.3,M,-6.4,M,,*4112:54:08.727> 
$GP,1.763,N,3.266,K,1.763,N,3.266,K,06$GPRMC,085410.00,A,5312.80071,N,05010.58403,E,1.763,,200423,,,A*7912:54:08.862> 
$GPVTG,,T,,M,A*2112:54:09.815> 
$GPGGA,085410.00,5312.80071,N,05010.58403,E,1,06,1.76,141.8,M,-6.4,M,,*4412:54:09.881> 
$GPGSA6,N,4.086,K,A*26,N,4.086,K,A*26$GPRMC,085412.00,A,5312.80018,N,05010.58632,E,2.206,,200423,,,A*7112:54:10.025> 
$GPVTG,,T,,M,2.20F12:54:11.351> 
$GPGGA,085412.00,5312.80018,N,05010.58632,E,1,06,1.76,140.6,M,-6.4,M,,*4612:54:11.482> 
$GPGSA,A,3,12,11,25,06$GPRMC,085413.00,A,5312.79965,N,05010.58700,E,1.928,,200423,,,A*7112:54:11.605> 
$GPVTG,,T,,M,1.928,N,3.571,K,A*2112:54:12.500> 
$GPGGA,085413.00,5312.79965,N,05010.58700,E,1,06,1.76,140.9,M,-6.4,M,,*4D12:54:12.646> 
$GPGSA,A,3,12,11,25,06$GPRMC,085414.00,A,5312.79912,N,05010.58781,E,2.091,,200423,,,A*7712:54:12.760> 
$GPVTG,,T,,M,2.091,N,3.873,K,A*2612:54:13.659> 
$GPGGA,085414.00,5312.79912,N,05010.58781,E,1,06,1.76,140.8,M,-6.4,M,,*4212:54:13.724> 
$GPGSA,A,3,12,11,25,06$GPRMC,085415.00,A,5312.79829,N,05010.58812,E,2.035,,200423,,,A*7412:54:13.900> 
$GPVTG,,T,,M,2.035,N,3.769,K,A*2C12:54:14.847> 
$GPGGA,085415.00,5312.79829,N,05010.58812,E,1,06,1.76,140.8,M,-6.4,M,,*4F12:54:14.933> 
$GPGSA,A,3,12,11,25,06$GPRMC,085417.00,A,5312.79653,N,05010.58846,E,2.080,152.50,200423,,,A*6712:54:15.054> 
$GPVTG,152.50,T,,M,2.080,N,3.852,K,A*3812:54:16.411> 
$GPGGA,085417.00,5312.79653,N,05010.58846,E,1,06,1.76,140.3,M,-6.4,M,,*4412:54:16.509> 
$GPGSA,A,3$GPRMC,085418.00,A,5312.79575,N,05010.58843,E,2.093,166.57,200423,,,A*6812:54:16.630> 
$GPVTG,166.57,T,,M,2.093,N,3.876,K,A*3C12:54:17.528> 
$GPGGA,085418.00,5312.79575,N,05010.58843,E,1,06,1.76,140.5,M,-6.4,M,,*4F12:54:17.593> 
$GPGSA,A,0,K,A*20,K,A*2,085419.00,A,5312.79512,N,05010.58843,E,1.928,,200423,,,A*7F12:54:17.715> 
$GPVTG,,T,,M,1.928,N,3.57012:54:18.644> 
$GPGGA,085419.00,5312.79512,N,05010.58843,E,1,06,1.76,140.3,M,-6.4,M,,*4912:54:18.790> 
$GPGSA,A,3,12,11,25,06$GPRMC,085420.00,A,5312.79459,N,05010.58813,E,1.722,,200423,,,A*7A12:54:18.904> 
$GPVTG,,T,,M,1.722,N,3.190,K,A*2E12:54:19.847> 
$GPGGA,085420.00,5312.79459,N,05010.58813,E,1,06,1.77,140.3,M,-6.4,M,,*4912:54:19.925> 
$GPGSA,A,3,12,11,25,06$GPRMC,085422.00,A,5312.79294,N,05010.58681,E,2.655,210.71,200423,,,A*6312:54:20.026> 
$GPVTG,210.71,T,,M,2.655,N,4.917,K,A*3712:54:21.397> 
$GPGGA,085422.00,5312.79294,N,05010.58681,E,1,06,1.77,140.7,M,-6.4,M,,*4D12:54:21.495> 
$GPGSA,A,3$GPRMC,085423.00,A,5312.79227,N,05010.58573,E,2.832,218.91,200423,,,A*6D12:54:21.642> 
$GPVTG,218.91,T,,M,2.832,N,5.245,K,A*3312:54:22.518> 
$GPGGA,085423.00,5312.79227,N,05010.58573,E,1,06,1.77,140.7,M,-6.4,M,,*4A12:54:22.583> 
$GPGSA,A,3$GPRMC,085424.00,A,5312.79214,N,05010.58523,E,2.158,223.32,200423,,,A*6B12:54:22.778> 
$GPVTG,223.32,T,,M,2.158,N,3.996,K,A*3412:54:23.661> 
$GPGGA,085424.00,5312.79214,N,05010.58523,E,1,06,1.77,140.6,M,-6.4,M,,*4912:54:23.807> 
$GPGSA,A,3$GPRMC,085425.00,A,5312.79142,N,05010.58426,E,2.329,,200423,,,A*7612:54:23.905> 
$GPVTG,,T,,M,2.329,N,4.314,K,A*2B12:54:24.841> 
$GPGGA,085425.00,5312.79142,N,05010.58426,E,1,06,1.77,140.7,M,-6.4,M,,*4D12:54:24.939> 
$GPGSA,A,3,12,11,25,06$GPRMC,085427.00,A,5312.78990,N,05010.58213,E,2.749,227.12,200423,,,A*6A12:54:25.058> 
$GPVTG,227.12,T,,M,2.749,N,5.092,K,A*3F12:54:26.410> 
$GPGGA,085427.00,5312.78990,N,05010.58213,E,1,06,1.77,141.2,M,-6.4,M,,*4D12:54:26.501> 
$GPGSA,A,3$GPRMC,085428.00,A,5312.78883,N,05010.58032,E,3.440,228.93,200423,,,A*6A12:54:26.625> 
$GPVTG,228.93,T,,M,3.440,N,6.372,K,A*3C12:54:27.551> 
$GPGGA,085428.00,5312.78883,N,05010.58032,E,1,06,1.77,141.6,M,-6.4,M,,*4412:54:27.633> 
$GPGSA,A,3$GPRMC,085429.00,A,5312.78765,N,05010.57857,E,4.033,229.64,200423,,,A*6612:54:27.738> 
$GPVTG,229.64,T,,M,4.033,N,7.469,K,A*3E12:54:28.713> 
$GPGGA,085429.00,5312.78765,N,05010.57857,E,1,06,1.77,142.3,M,-6.4,M,,*4012:54:28.803> 
$GPGSA,A,3$GPRMC,085430.00,A,5312.78620,N,05010.57685,E,4.537,226.89,200423,,,A*6212:54:28.917> 
$GPVTG,226.89,T,,M,4.537,N,8.403,K,A*3012:54:29.802> 
$GPGGA,085430.00,5312.78620,N,05010.57685,E,1,06,1.77,143.0,M,-6.4,M,,*4B12:54:29.948> 
$GPGSA,A,3$GPRMC,085432.00,A,5312.78577,N,05010.57543,E,3.312,226.40,200423,,,A*6B12:54:30.059> 
$GPVTG,226.40,T,,M,3.312,N,6.134,K,A*3C12:54:31.354> 
$GPGGA,085432.00,5312.78577,N,05010.57543,E,1,06,1.90,142.9,M,-6.4,M,,*4012:54:31.419> 
$GPGSA,A,3$GPRMC,085433.00,A,5312.78544,N,05010.57463,E,3.088,227.30,200423,,,A*6F12:54:31.582> 
$GPVTG,227.30,T,,M,3.088,N,5.718,K,A*3112:54:32.521> 
$GPGGA,085433.00,5312.78544,N,05010.57463,E,1,06,1.90,143.0,M,-6.4,M,,*4A12:54:32.596> 
$GPGSA,A,3$GPRMC,085434.00,A,5312.78504,N,05010.57367,E,2.989,228.81,200423,,,A*6312:54:32.710> 
$GPVTG,228.81,T,,M,2.989,N,5.536,K,A*3312:54:33.642> 
$GPGGA,085434.00,5312.78504,N,05010.57367,E,1,06,1.90,143.0,M,-6.4,M,,*4A12:54:33.790> 
$GPGSA,A,3$GPRMC,085435.00,A,5312.78504,N,05010.57319,E,2.518,231.03,200423,,,A*6D12:54:33.897> 
$GPVTG,231.03,T,,M,2.518,N,4.664,K,A*3012:54:34.803> 
$GPGGA,085435.00,5312.78504,N,05010.57319,E,1,05,1.90,142.5,M,-6.4,M,,*4512:54:34.939> 
$GPGSA,A,3$GPRMC,085437.00,A,5312.78499,N,05010.57238,E,1.839,,200423,,,A*7812:54:35.051> 
$GPVTG,,T,,M,1.839,N,3.405,K,A*2212:54:36.396> 
$GPGGA,085437.00,5312.78499,N,05010.57238,E,1,06,1.90,142.4,M,-6.4,M,,*4212:54:36.477> 
$GPGSA,A,3,12,11,25,06$GPRMC,085438.00,A,5312.78499,N,05010.57211,E,1.548,,200423,,,A*7712:54:36.607> 
$GPVTG,,T,,M,1.548,N,2.867,K,A*2012:54:37.536> 
$GPGGA,085438.00,5312.78499,N,05010.57211,E,1,06,1.77,142.4,M,-6.4,M,,*4F12:54:37.615> 
$GPGSA,A,3,12,11,25,06$GPRMC,085439.00,A,5312.78545,N,05010.57228,E,0.997,,200423,,,A*7312:54:37.722> 
$GPVTG,,T,,M,0.997,N,1.847,K,A*2E12:54:38.634> 
$GPGGA,085439.00,5312.78545,N,05010.57228,E,1,06,1.77,142.2,M,-6.4,M,,*4212:54:38.791> 
$GPGSA,A,3,12,11,25,06$GPRMC,085440.00,A,5312.78519,N,05010.57127,E,1.383,,200423,,,A*7612:54:38.898> 
$GPVTG,,T,,M,1.383,N,2.561,K,A*2A12:54:39.789> 
$GPGGA,085440.00,5312.78519,N,05010.57127,E,1,06,1.77,142.3,M,-6.4,M,,*4812:54:39.910> 
$GPGSA,A,3,12,11,25,06$GPRMC,085442.00,A,5312.78595,N,05010.57025,E,1.605,,200423,,,A*7812:54:39.992> 
$GPVTG,,T,,M,1.605,N,2.972,K,A*2F12:54:41.374> 
$GPGGA,085442.00,5312.78595,N,05010.57025,E,1,06,1.77,142.8,M,-6.4,M,,*4612:54:41.457> 
$GPGSA,A,3,12,11,25,06$GPRMC,085443.00,A,5312.78640,N,05010.56965,E,1.767,,200423,,,A*7B12:54:41.571> 
$GPVTG,,T,,M,1.767,N,3.272,K,A*2012:54:42.476> 
$GPGGA,085443.00,5312.78640,N,05010.56965,E,1,06,1.77,143.2,M,-6.4,M,,*4B12:54:42.598> 
$GPGSA,A,3,12,11,25,06$GPRMC,085444.00,A,5312.78675,N,05010.56913,E,1.833,,200423,,,A*7512:54:42.720> 
$GPVTG,,T,,M,1.833,N,3.396,K,A*2512:54:43.661> 
$GPGGA,085444.00,5312.78675,N,05010.56913,E,1,06,1.77,143.7,M,-6.4,M,,*4E12:54:43.726> 
$GPGSA,A,3,12,11,25,06$GPRMC,085445.00,A,5312.78695,N,05010.56828,E,1.982,,200423,,,A*7812:54:43.824> 
$GPVTG,,T,,M,1.982,N,3.670,K,A*2312:54:44.836> 
$GPGGA,085445.00,5312.78695,N,05010.56828,E,1,06,1.77,144.5,M,-6.4,M,,*4D12:54:44.917> 
$GPGSA,A,3,12,11,25,06$GPRMC,085447.00,A,5312.78761,N,05010.56644,E,2.431,,200423,,,A*7212:54:45.030> 
$GPVTG,,T,,M,2.431,N,4.503,K,A*2512:54:46.366> 
$GPGGA,085447.00,5312.78761,N,05010.56644,E,1,05,2.92,145.9,M,-6.4,M,,*4712:54:46.423> 
$GPGSA,A,3,12,11,25,06$GPRMC,085448.00,A,5312.78802,N,05010.56565,E,2.392,,200423,,,A*7912:54:46.513> 
$GPVTG,,T,,M,2.392,N,4.430,K,A*2A12:54:47.503> 
$GPGGA,085448.00,5312.78802,N,05010.56565,E,1,05,2.92,146.0,M,-6.4,M,,*4812:54:47.568> 
$GPGSA,A,3,12,11,25,06$GPRMC,085449.00,A,5312.78798,N,05010.56403,E,2.643,,200423,,,A*7C12:54:47.665> 
$GPVTG,,T,,M,2.643,N,4.895,K,A*2012:54:48.689> 
$GPGGA,085449.00,5312.78798,N,05010.56403,E,1,05,2.92,146.2,M,-6.4,M,,*4612:54:48.789> 
$GPGSA,A,3,12,11,25,06$GPRMC,085450.00,A,5312.78840,N,05010.56334,E,2.492,,200423,,,A*7312:54:48.919> 
$GPVTG,,T,,M,2.492,N,4.615,K,A*2812:54:49.793> 
$GPGGA,085450.00,5312.78840,N,05010.56334,E,1,05,2.92,146.4,M,-6.4,M,,*4112:54:49.938> 
$GPGSA,A,3,12,11,25,06$GPRMC,085452.00,A,5312.79016,N,05010.56409,E,2.845,326.38,200423,,,A*6612:54:50.052> 
$GPVTG,326.38,T,,M,2.845,N,5.268,K,A*3312:54:51.379> 
$GPGGA,085452.00,5312.79016,N,05010.56409,E,1,05,2.92,146.5,M,-6.4,M,,*4112:54:51.460> 
$GPGSA,A,3$GPRMC,085453.00,A,5312.79055,N,05010.56341,E,2.878,342.41,200423,,,A*6912:54:51.574> 
$GPVTG,342.41,T,,M,2.878,N,5.329,K,A*3512:54:52.532> 
$GPGGA,085453.00,5312.79055,N,05010.56341,E,1,05,2.92,146.5,M,-6.4,M,,*4C12:54:52.619> 
$GPGSA,A,3$GPRMC,085454.00,A,5312.79076,N,05010.56261,E,2.645,,200423,,,A*7212:54:52.725> 
$GPVTG,,T,,M,2.645,N,4.898,K,A*2B12:54:53.683> 
$GPGGA,085454.00,5312.79076,N,05010.56261,E,1,05,2.92,146.4,M,-6.4,M,,*4812:54:53.748> 
$GPGSA,A,3,12,11,25,06$GPRMC,085455.00,A,5312.79149,N,05010.56157,E,2.976,343.38,200423,,,A*6612:54:53.830> 
$GPVTG,343.38,T,,M,2.976,N,5.512,K,A*3B12:54:54.824> 
$GPGGA,085455.00,5312.79149,N,05010.56157,E,1,06,2.92,146.3,M,-6.4,M,,*4612:54:54.889> 
$GPGSA,A,3$GPRMC,085457.00,A,5312.79291,N,05010.56123,E,3.243,350.36,200423,,,A*6112:54:54.971> 
$GPVTG,350.36,T,,M,3.243,N,6.006,K,A*3812:54:56.354> 
$GPGGA,085457.00,5312.79291,N,05010.56123,E,1,06,2.92,145.8,M,-6.4,M,,*4912:54:56.500> 
$GPGSA,A,3$GPRMC,085458.00,A,5312.79282,N,05010.56075,E,2.941,354.00,200423,,,A*6712:54:56.622> 
$GPVTG,354.00,T,,M,2.941,N,5.447,K,A*3312:54:57.516> 
$GPGGA,085458.00,5312.79282,N,05010.56075,E,1,05,2.92,145.0,M,-6.4,M,,*4D12:54:57.573> 
$GPGSA,A,3$GPRMC,085459.00,A,5312.79336,N,05010.56021,E,2.927,352.93,200423,,,A*6512:54:57.727> 
$GPVTG,352.93,T,,M,2.927,N,5.421,K,A*3F12:54:58.683> 
$GPGGA,085459.00,5312.79336,N,05010.56021,E,1,05,8.53,145.0,M,-6.4,M,,*4412:54:58.756> 
$GPGSA,A,3$GPRMC,085500.00,A,5312.79386,N,05010.55983,E,2.863,352.05,200423,,,A*6F12:54:58.871> 
$GPVTG,352.05,T,,M,2.863,N,5.302,K,A*3712:54:59.846> 
$GPGGA,085500.00,5312.79386,N,05010.55983,E,1,05,8.55,145.0,M,-6.4,M,,*4612:54:59.928> 
$GPGSA,A,3$GPRMC,085502.00,A,5312.79614,N,05010.55970,E,4.166,1.39,200423,,,A*6F12:55:00.044> 
$GPVTG,1.39,T,,M,4.166,N,7.715,K,A*3712:55:01.392> 
$GPGGA,085502.00,5312.79614,N,05010.55970,E,1,05,8.59,144.7,M,-6.4,M,,*4C12:55:01.473> 
$GPGSA,A,3,12,$GPRMC,085503.00,A,5312.79673,N,05010.55916,E,3.551,358.97,200423,,,A*6312:55:01.579> 
$GPVTG,358.97,T,,M,3.551,N,6.577,K,A*3C12:55:02.530> 
$GPGGA,085503.00,5312.79673,N,05010.55916,E,1,05,8.61,144.7,M,-6.4,M,,*4712:55:02.595> 
$GPGSA,A,3$GPRMC,085504.00,A,5312.79721,N,05010.55833,E,3.232,353.81,200423,,,A*6A12:55:02.684> 
$GPVTG,353.81,T,,M,3.232,N,5.987,K,A*3212:55:03.686> 
$GPGGA,085504.00,5312.79721,N,05010.55833,E,1,05,8.63,144.6,M,-6.4,M,,*4312:55:03.759> 
$GPGSA,A,3$GPRMC,085505.00,A,5312.79770,N,05010.55723,E,3.175,347.54,200423,,,A*6C12:55:03.857> 
$GPVTG,347.54,T,,M,3.175,N,5.880,K,A*3912:55:04.858> 
$GPGGA,085505.00,5312.79770,N,05010.55723,E,1,05,2.92,144.9,M,-6.4,M,,*4312:55:04.939> 
$GPGSA,A,3$GPRMC,085507.00,A,5312.80208,N,05010.55770,E,5.817,3.46,200423,,,A*6F12:55:05.044> 
$GPVTG,3.46,T,,M,5.817,N,10.773,K,A*0512:55:06.373> 
$GPGGA,085507.00,5312.80208,N,05010.55770,E,1,05,2.92,145.8,M,-6.4,M,,*4B12:55:06.437> 
$GPGSA,A,3,12$GPRMC,085508.00,A,5312.80262,N,05010.55695,E,4.767,0.64,200423,,,A*6C12:55:06.519> 
$GPVTG,0.64,T,,M,4.767,N,8.829,K,A*3612:55:07.516> 
$GPGGA,085508.00,5312.80262,N,05010.55695,E,1,05,2.92,145.9,M,-6.4,M,,*4312:55:07.578> 
$GPGSA,A,3,12,$GPRMC,085509.00,A,5312.80291,N,05010.55614,E,3.714,355.07,200423,,,A*6D12:55:07.660> 
$GPVTG,355.07,T,,M,3.714,N,6.879,K,A*3812:55:08.655> 
$GPGGA,085509.00,5312.80291,N,05010.55614,E,1,05,2.92,146.0,M,-6.4,M,,*4D12:55:08.801> 
$GPGSA,A,3$GPRMC,085510.00,A,5312.80340,N,05010.55531,E,3.349,349.38,200423,,,A*6112:55:08.916> 
$GPVTG,349.38,T,,M,3.349,N,6.203,K,A*3212:55:09.827> 
$GPGGA,085510.00,5312.80340,N,05010.55531,E,1,05,2.92,146.1,M,-6.4,M,,*4D12:55:09.908> 
$GPGSA,A,3$GPRMC,085512.00,A,5312.80417,N,05010.55385,E,2.728,344.52,200423,,,A*6C12:55:10.022> 
$GPVTG,344.52,T,,M,2.728,N,5.052,K,A*3412:55:11.354> 
$GPGGA,085512.00,5312.80417,N,05010.55385,E,1,05,2.92,145.9,M,-6.4,M,,*4812:55:11.419> 
$GPGSA,A,3$GPRMC,085513.00,A,5312.80428,N,05010.55319,E,2.186,339.75,200423,,,A*6912:55:11.508> 
$GPVTG,339.75,T,,M,2.186,N,4.049,K,A*3212:55:12.505> 
$GPGGA,085513.00,5312.80428,N,05010.55319,E,1,05,2.92,146.2,M,-6.4,M,,*4812:55:12.627> 
$GPGSA,A,3$GPRMC,085514.00,A,5312.80439,N,05010.55261,E,1.745,,200423,,,A*7F12:55:12.728> 
$GPVTG,,T,,M,1.745,N,3.232,K,A*2412:55:13.628> 
$GPGGA,085514.00,5312.80439,N,05010.55261,E,1,05,2.92,146.2,M,-6.4,M,,*4112:55:13.775> 
$GPGSA,A,3,12,11,25,06$GPRMC,085515.00,A,5312.80445,N,05010.55236,E,1.271,,200423,,,A*7512:55:13.890> 
$GPVTG,,T,,M,1.271,N,2.354,K,A*2612:55:14.832> 
$GPGGA,085515.00,5312.80445,N,05010.55236,E,1,05,2.92,146.3,M,-6.4,M,,*4812:55:14.913> 
$GPGSA,A,3,12,11,25,06$GPRMC,085517.00,A,5312.80417,N,05010.55223,E,1.053,,200423,,,A*7612:55:15.021> 
$GPVTG,,T,,M,1.053,N,1.950,K,A*2912:55:16.357> 
$GPGGA,085517.00,5312.80417,N,05010.55223,E,1,05,2.92,145.1,M,-6.4,M,,*4812:55:16.422> 
$GPGSA,A,3,12,11,25,06$GPRMC,085518.00,A,5312.80393,N,05010.55203,E,0.641,,200423,,,A*7412:55:16.505> 
$GPVTG,,T,,M,0.641,N,1.187,K,A*2F12:55:17.503> 
$GPGGA,085518.00,5312.80393,N,05010.55203,E,1,05,2.92,144.8,M,-6.4,M,,*4612:55:17.560> 
$GPGSA,A,3,12,11,25,06$GPRMC,085519.00,A,5312.80370,N,05010.55180,E,0.367,,200423,,,A*7112:55:17.750> 
$GPVTG,,T,,M,0.367,N,0.680,K,A*2F12:55:18.686> 
$GPGGA,085519.00,5312.80370,N,05010.55180,E,1,06,2.92,144.6,M,-6.4,M,,*4F12:55:18.775> 
$GPGSA,A,3,12,11,25,06$GPRMC,085520.00,A,5312.80374,N,05010.55149,E,0.263,,200423,,,A*7F12:55:18.888> 
$GPVTG,,T,,M,0.263,N,0.487,K,A*2F12:55:19.846> 
$GPGGA,085520.00,5312.80374,N,05010.55149,E,1,06,2.92,144.6,M,-6.4*7812:55:19.960> 
$GPVTG,,T,,*7812:55:19.992> 
$GPVTG,,T,,A,3,12,11,25,06$GPRMC,085522.00,A,5312.80369,N,05010.55154,E,0.064,,200423,,,AM,0.064,N,0.119,K,A*2812:55:21.371> 
$GPGGA,085522.00,5312.80369,N,05010.55154,E,1,06,2.92,144.9,M,-6.4,M,,*4912:55:21.436> 
$GPGSA,A,3,12,11,25,06$GPRMC,085523.00,A,5312.80361,N,05010.55114,E,0.016,,200423,,,A*7012:55:21.550> 
$GPVTG,,T,,M,0.016,N,0.029,K,A*2F12:55:22.502> 
$GPGGA,085523.00,5312.80361,N,05010.55114,E,1,06,1.78,145.0,M,-6.4,M,,*4B12:55:22.631> 
$GPGSA,A,3,12,11,25,06$GPRMC,085524.00,A,5312.80355,N,05010.55113,E,0.114,,200423,,,A*7412:55:22.737> 
$GPVTG,,T,,M,0.114,N,0.212,K,A*2612:55:23.639> 
$GPGGA,085524.00,5312.80355,N,05010.55113,E,1,06,1.78,145.0,M,-6.4,M,,*4C12:55:23.714> 
$GPGSA,A,3,12,11,25,06$GPRMC,085525.00,A,5312.80348,N,05010.55100,E,0.216,,200423,,,A*7A12:55:23.812> 
$GPVTG,,T,,M,0.216,N,0.400,K,A*2212:55:24.799> 
$GPGGA,085525.00,5312.80348,N,05010.55100,E,1,06,1.78,145.3,M,-6.4,M,,*4012:55:24.873> 
$GPGSA,A,3,12,11,25,06$GPRMC,085527.00,A,5312.80213,N,05010.55173,E,1.723,,200423,,,A*7112:55:24.970> 
$GPVTG,,T,,M,1.723,N,3.191,K,A*2E12:55:26.380> 
$GPGGA,085527.00,5312.80213,N,05010.55173,E,1,06,1.78,142.9,M,-6.4,M,,*4412:55:26.454> 
$GPGSA,A,3,12,11,25,06$GPRMC,085528.00,A,5312.80105,N,05010.55202,E,2.170,,200423,,,A*7C12:55:26.569> 
$GPVTG,,T,,M,2.170,N,4.018,K,A*2A12:55:27.503> 
$GPGGA,085528.00,5312.80105,N,05010.55202,E,1,06,1.78,141.4,M,-6.4,M,,*4412:55:27.568> 
$GPGSA,A,3,12,11,25,06$GPRMC,085529.00,A,5312.80038,N,05010.55197,E,1.969,,200423,,,A*7E12:55:27.666> 
$GPVTG,,T,,M,1.969,N,3.647,K,A*2212:55:28.653> 
$GPGGA,085529.00,5312.80038,N,05010.55197,E,1,06,1.78,140.6,M,-6.4,M,,*4612:55:28.710> 
$GPGSA,A,3,12,11,25,06$GPRMC,085530.00,A,5312.79935,N,05010.55211,E,2.232,59.87,200423,,,A*5212:55:28.905> 
$GPVTG,59.87,T,,M,2.232,N,4.134,K,A*0D12:55:29.807> 
$GPGGA,085530.00,5312.79935,N,05010.55211,E,1,06,1.78,139.1,M,-6.4,M,,*4812:55:29.872> 
$GPGSA,A,3,1$GPRMC,085532.00,A,5312.79920,N,05010.55196,E,1.211,,200423,,,A*7712:55:29.953> 
$GPVTG,,T,,M,1.211,N,2.242,K,A*2612:55:31.333> 
